[
  {
    "address" : "245 Derby St, Salem MA",
    "categories" : [
      "parking",
      "publicRestroom"
    ],
    "coordinate" : {
      "latitude" : 42.5204,
      "longitude" : -70.89054
    },
    "name" : "South Harbor Garage"
  },
  {
    "address" : "193 Derby St, Salem MA",
    "categories" : [
      "pointOfInterest",
      "publicRestroom"
    ],
    "coordinate" : {
      "latitude" : 42.52075,
      "longitude" : -70.88777
    },
    "name" : "Central Wharf"
  },
  {
    "address" : "2 New Liberty St, Salem MA",
    "categories" : [
      "museum",
      "souvenierShop",
      "publicRestroom"
    ],
    "coordinate" : {
      "latitude" : 42.52246,
      "longitude" : -70.89205
    },
    "name" : "Salem Visitor's Center"
  },
  {
    "categories" : [
      "portAPotty"
    ],
    "coordinate" : {
      "latitude" : 42.52261,
      "longitude" : -70.89217
    },
    "name" : "Visitor Center Potties"
  },
  {
    "categories" : [
      "portAPotty"
    ],
    "coordinate" : {
      "latitude" : 42.52443,
      "longitude" : -70.88969
    },
    "name" : "Salem Common Potties"
  },
  {
    "categories" : [
      "portAPotty"
    ],
    "coordinate" : {
      "latitude" : 42.52226,
      "longitude" : -70.89768
    },
    "name" : "Lynde Street Lot Potties"
  },
  {
    "address" : "150 Main St, Peabody",
    "categories" : [
      "atm"
    ],
    "coordinate" : {
      "latitude" : 42.5237734,
      "longitude" : -70.9213854
    },
    "name" : "Bank of America - ATM",
    "phoneNumber" : "+1 (844) 401-8500",
    "website" : "https:\/\/locators.bankofamerica.com\/ma\/peabody\/atm-peabody-103615.html"
  },
  {
    "address" : "200 Essex St, Salem",
    "categories" : [
      "atm"
    ],
    "coordinate" : {
      "latitude" : 42.5219575,
      "longitude" : -70.8944276
    },
    "name" : "Santander - ATM",
    "phoneNumber" : "+1 (877) 768-2265",
    "website" : "https:\/\/locations.santanderbank.com\/ma\/salem\/200-essex-st-167200.html"
  },
  {
    "address" : "227 Highland Ave, Salem",
    "categories" : [
      "atm"
    ],
    "coordinate" : {
      "latitude" : 42.5042805,
      "longitude" : -70.9215465
    },
    "name" : "Bank of America - ATM",
    "phoneNumber" : "+1 (844) 401-8500",
    "website" : "https:\/\/locators.bankofamerica.com\/ma\/salem\/atm-salem-102919.html"
  },
  {
    "address" : "35 Main St, Peabody",
    "categories" : [
      "atm"
    ],
    "coordinate" : {
      "latitude" : 42.5250231,
      "longitude" : -70.9261353
    },
    "name" : "TD Bank ATM",
    "phoneNumber" : "+1 (888) 751-9000",
    "website" : "https:\/\/www.td.com\/us\/en\/personal-banking\/store-locator\/"
  },
  {
    "address" : "426 Essex St, Salem",
    "categories" : [
      "atm"
    ],
    "coordinate" : {
      "latitude" : 42.5166469,
      "longitude" : -70.9064733
    },
    "name" : "Santander - ATM",
    "phoneNumber" : "+1 (877) 768-2265",
    "website" : "https:\/\/locations.santanderbank.com\/ma\/salem\/426b-essex-st-135230.html"
  },
  {
    "address" : "90 North St, Salem",
    "categories" : [
      "atm"
    ],
    "coordinate" : {
      "latitude" : 42.5259477,
      "longitude" : -70.8995891
    },
    "name" : "PNC ATM",
    "phoneNumber" : "+1 (888) 762-2265",
    "website" : "https:\/\/www.pnc.com"
  },
  {
    "address" : "54 Elliott St, Beverly",
    "categories" : [
      "atm"
    ],
    "coordinate" : {
      "latitude" : 42.5538725,
      "longitude" : -70.8813926
    },
    "name" : "TD Bank ATM",
    "phoneNumber" : "+1 (888) 751-9000",
    "website" : "https:\/\/www.td.com\/us\/en\/personal-banking\/store-locator\/"
  },
  {
    "address" : "174 Main St, Peabody",
    "categories" : [
      "atm"
    ],
    "coordinate" : {
      "latitude" : 42.5233145,
      "longitude" : -70.9199932
    },
    "name" : "PNC ATM",
    "phoneNumber" : "+1 (888) 762-2265",
    "website" : "https:\/\/www.pnc.com"
  },
  {
    "address" : "48 Central St, Salem",
    "categories" : [
      "coffeeLocals",
      "customerRestroom"
    ],
    "coordinate" : {
      "latitude" : 42.5200993,
      "longitude" : -70.8930023
    },
    "name" : "A&J King Artisan Bakers",
    "phoneNumber" : "+1 (978) 744-4881",
    "website" : "https:\/\/ajkingbakery.com"
  },
  {
    "address" : "285 Derby St, Salem",
    "categories" : [
      "coffeeLocals"
    ],
    "coordinate" : {
      "latitude" : 42.5200151,
      "longitude" : -70.8913467
    },
    "name" : "Lulu’s Bakery & Pantry",
    "phoneNumber" : "+1 (978) 594-4531",
    "website" : "https:\/\/lulusbakeryandpantry.com"
  },
  {
    "address" : "281 Essex St, Salem",
    "categories" : [
      "coffeeLocals"
    ],
    "coordinate" : {
      "latitude" : 42.5213847,
      "longitude" : -70.8973632
    },
    "name" : "Caramel French Patisserie",
    "phoneNumber" : "+1 (978) 594-0244",
    "website" : "https:\/\/www.facebook.com\/caramelfrenchpatisserie\/"
  },
  {
    "address" : "48 Walnut St, Peabody",
    "categories" : [
      "coffeeLocals"
    ],
    "coordinate" : {
      "latitude" : 42.5266604,
      "longitude" : -70.9234378
    },
    "name" : "Central Bakery",
    "phoneNumber" : "+1 (978) 531-2101",
    "website" : "http:\/\/centralbakery.com"
  },
  {
    "address" : "139 Boston St, Salem",
    "categories" : [
      "coffeeLocals"
    ],
    "coordinate" : {
      "latitude" : 42.521476,
      "longitude" : -70.9149789
    },
    "name" : "A&J King Artisan Bakers",
    "phoneNumber" : "+1 (978) 674-5387",
    "website" : "http:\/\/ajkingbakery.com"
  },
  {
    "address" : "188 Cabot St, Beverly",
    "categories" : [
      "coffeeLocals"
    ],
    "coordinate" : {
      "latitude" : 42.5478366,
      "longitude" : -70.8792916
    },
    "name" : "Bonny Breads",
    "website" : "https:\/\/bonnybreads.com"
  },
  {
    "address" : "1 Boston St, Salem",
    "categories" : [
      "coffeeLocals"
    ],
    "coordinate" : {
      "latitude" : 42.5177899,
      "longitude" : -70.9055621
    },
    "name" : "Ilsa Cakes",
    "phoneNumber" : "+1 (978) 594-0453"
  },
  {
    "address" : "240 Rantoul St, Beverly",
    "categories" : [
      "coffeeLocals"
    ],
    "coordinate" : {
      "latitude" : 42.5495828,
      "longitude" : -70.8837961
    },
    "name" : "Sunray Bakery",
    "phoneNumber" : "+1 (978) 922-1941",
    "website" : "http:\/\/sunraybakery.com"
  },
  {
    "address" : "210 Essex St, Salem",
    "categories" : [
      "bank"
    ],
    "coordinate" : {
      "latitude" : 42.5216076,
      "longitude" : -70.8946993
    },
    "name" : "Salem Five Bank",
    "phoneNumber" : "+1 (800) 850-5000",
    "website" : "https:\/\/www.salemfive.com\/about-us\/"
  },
  {
    "address" : "71 Washington St, Salem",
    "categories" : [
      "bank"
    ],
    "coordinate" : {
      "latitude" : 42.5223589,
      "longitude" : -70.8956772
    },
    "name" : "Salem Five Bank",
    "phoneNumber" : "+1 (978) 744-5450",
    "website" : "https:\/\/www.salemfive.com\/locations\/salem-71-washington-street\/"
  },
  {
    "address" : "37 Central St, Salem",
    "categories" : [
      "bank"
    ],
    "coordinate" : {
      "latitude" : 42.5206481,
      "longitude" : -70.8931178
    },
    "name" : "Eastern Bank",
    "phoneNumber" : "+1 (978) 740-6900",
    "website" : "https:\/\/www.easternbank.com\/locations\/eastern-bank-salem-ma-central-street"
  },
  {
    "address" : "19 Congress St, Salem",
    "categories" : [
      "bank"
    ],
    "coordinate" : {
      "latitude" : 42.5199982,
      "longitude" : -70.8896952
    },
    "name" : "Eastern Bank",
    "phoneNumber" : "+1 (978) 740-6382",
    "website" : "https:\/\/www.easternbank.com\/locations\/eastern-bank-salem-ma-pickering-wharf"
  },
  {
    "address" : "424 Essex St, Salem",
    "categories" : [
      "bank"
    ],
    "coordinate" : {
      "latitude" : 42.5170593,
      "longitude" : -70.9062661
    },
    "name" : "Salem Five Bank",
    "phoneNumber" : "+1 (978) 745-5247",
    "website" : "https:\/\/www.salemfive.com\/locations\/salem-424-essex-street\/"
  },
  {
    "address" : "193 Washington St, Salem",
    "categories" : [
      "bank"
    ],
    "coordinate" : {
      "latitude" : 42.519466,
      "longitude" : -70.8949522
    },
    "name" : "Rockland Trust",
    "phoneNumber" : "+1 (978) 977-6085",
    "website" : "https:\/\/www.rocklandtrust.com\/about-us\/locations\/salem-ma-branch"
  },
  {
    "address" : "73 Lafayette St, Salem",
    "categories" : [
      "bank"
    ],
    "coordinate" : {
      "latitude" : 42.519392,
      "longitude" : -70.8932288
    },
    "name" : "North Shore Bank",
    "phoneNumber" : "+1 (978) 745-1941",
    "website" : "https:\/\/www.northshore-bank.com\/customer-support\/locations-hours\/Lafayette-St-Salem-Branch.aspx"
  },
  {
    "address" : "165 Cabot St, Beverly",
    "categories" : [
      "bank"
    ],
    "coordinate" : {
      "latitude" : 42.5471503,
      "longitude" : -70.8791001
    },
    "name" : "Bank of America",
    "phoneNumber" : "+1 (978) 232-3540",
    "website" : "https:\/\/locators.bankofamerica.com\/ma\/beverly\/financial-centers-beverly-14436.html"
  },
  {
    "address" : "19 Howley St, Salem",
    "categories" : [
      "bank"
    ],
    "coordinate" : {
      "latitude" : 42.5234108,
      "longitude" : -70.917117
    },
    "name" : "Citizens",
    "phoneNumber" : "+1 (978) 977-0134",
    "website" : "https:\/\/locations.citizensbank.com\/ma\/peabody\/19-howley-st.html"
  },
  {
    "address" : "37 Foster St, Peabody",
    "categories" : [
      "bank"
    ],
    "coordinate" : {
      "latitude" : 42.5248924,
      "longitude" : -70.9282175
    },
    "name" : "Eastern Bank",
    "phoneNumber" : "+1 (781) 598-7469",
    "website" : "https:\/\/www.easternbank.com\/locations\/eastern-bank-peabody-foster-street"
  },
  {
    "address" : "175 Cabot St, Beverly",
    "categories" : [
      "bank"
    ],
    "coordinate" : {
      "latitude" : 42.5473145,
      "longitude" : -70.8789463
    },
    "name" : "TD Bank",
    "phoneNumber" : "+1 (978) 524-2060",
    "website" : "https:\/\/www.td.com\/us\/en\/personal-banking\/store-locator#\/"
  },
  {
    "address" : "254 Cabot St, Beverly",
    "categories" : [
      "bank"
    ],
    "coordinate" : {
      "latitude" : 42.5498703,
      "longitude" : -70.8782423
    },
    "name" : "North Shore Bank",
    "phoneNumber" : "+1 (978) 922-0857",
    "website" : "https:\/\/www.northshore-bank.com\/customer-support\/locations-hours\/Cabot-St-Beverly-Branch.aspx"
  },
  {
    "address" : "240 Cabot St, Beverly",
    "categories" : [
      "bank"
    ],
    "coordinate" : {
      "latitude" : 42.5492212,
      "longitude" : -70.8783199
    },
    "name" : "M&T Bank",
    "phoneNumber" : "+1 (978) 720-1200",
    "website" : "https:\/\/locations.mtb.com\/"
  },
  {
    "address" : "79–99 Memorial Dr, Salem",
    "categories" : [
      "beach"
    ],
    "coordinate" : {
      "latitude" : 42.5336902,
      "longitude" : -70.8739185
    },
    "name" : "Dead Horse Beach",
    "website" : "http:\/\/salem.patch.com\/articles\/video-salem-welcomes-2012-at-dead-horse-beach-bonfire#video-8849603"
  },
  {
    "address" : "93 Lothrop St, Beverly",
    "categories" : [
      "beach"
    ],
    "coordinate" : {
      "latitude" : 42.5476202,
      "longitude" : -70.870317
    },
    "name" : "Dane Street Beach"
  },
  {
    "address" : "50 Winter Island Rd, Salem",
    "categories" : [
      "beach"
    ],
    "coordinate" : {
      "latitude" : 42.5278243,
      "longitude" : -70.8676819
    },
    "name" : "Waikiki Beach",
    "phoneNumber" : "+1 (978) 745-9430",
    "website" : "https:\/\/www.salem.org\/listing\/waikiki-beach\/"
  },
  {
    "address" : "98 Collins St, Salem",
    "categories" : [
      "beach"
    ],
    "coordinate" : {
      "latitude" : 42.5276261,
      "longitude" : -70.8876461
    },
    "name" : "Collins Cove Beach"
  },
  {
    "address" : "173 Fort Ave, Salem",
    "categories" : [
      "beach"
    ],
    "coordinate" : {
      "latitude" : 42.5361647,
      "longitude" : -70.8703566
    },
    "name" : "Salem Willows Beach",
    "phoneNumber" : "+1 (978) 745-0251",
    "website" : "http:\/\/www.willowsarcade.com"
  },
  {
    "address" : "28 Porter St, Beverly",
    "categories" : [
      "beach"
    ],
    "coordinate" : {
      "latitude" : 42.5433478,
      "longitude" : -70.8901903
    },
    "name" : "Goat Hill"
  },
  {
    "address" : "38 Clifton Ave, Salem",
    "categories" : [
      "beach"
    ],
    "coordinate" : {
      "latitude" : 42.5053322,
      "longitude" : -70.8829844
    },
    "name" : "Fr Point"
  },
  {
    "address" : "36 Shore Ave, Salem",
    "categories" : [
      "beach"
    ],
    "coordinate" : {
      "latitude" : 42.5086016,
      "longitude" : -70.8869551
    },
    "name" : "Glendale Cove Beach"
  },
  {
    "address" : "9 Waldemar Ave, Beverly",
    "categories" : [
      "beach"
    ],
    "coordinate" : {
      "latitude" : 42.5467865,
      "longitude" : -70.8583911
    },
    "name" : "Woodbury Beach"
  },
  {
    "address" : "23 Beach Ave, Salem",
    "categories" : [
      "beach"
    ],
    "coordinate" : {
      "latitude" : 42.53405267576802,
      "longitude" : -70.8659146101457
    },
    "name" : "Juniper Beach"
  },
  {
    "address" : "200 Fort Ave, Salem",
    "categories" : [
      "beach"
    ],
    "coordinate" : {
      "latitude" : 42.5350046,
      "longitude" : -70.8721617
    },
    "name" : "Fort Pickering Beach"
  },
  {
    "address" : "283R Derby St, Salem",
    "categories" : [
      "brewery",
      "customerRestroom"
    ],
    "coordinate" : {
      "latitude" : 42.51964923069249,
      "longitude" : -70.89068931859964
    },
    "name" : "Notch Brewing",
    "phoneNumber" : "+1 (978) 412-7674",
    "website" : "http:\/\/www.notchbrewing.com\/"
  },
  {
    "address" : "108 Jackson St, Salem",
    "categories" : [
      "brewery"
    ],
    "coordinate" : {
      "latitude" : 42.5147507,
      "longitude" : -70.9000141
    },
    "name" : "Far From The Tree Cider",
    "phoneNumber" : "+1 (978) 224-2904",
    "website" : "http:\/\/www.farfromthetreecider.com\/"
  },
  {
    "address" : "77B Main St, Peabody",
    "categories" : [
      "brewery"
    ],
    "coordinate" : {
      "latitude" : 42.5244156,
      "longitude" : -70.9241946
    },
    "name" : "Granite Coast Brewing",
    "phoneNumber" : "+1 (978) 595-2775",
    "website" : "https:\/\/www.granitecoastbrewing.com"
  },
  {
    "address" : "31A Park St, Beverly",
    "categories" : [
      "brewery"
    ],
    "coordinate" : {
      "latitude" : 42.5476583,
      "longitude" : -70.8846796
    },
    "name" : "Backbeat Brewing Company",
    "phoneNumber" : "+1 (978) 720-8007",
    "website" : "http:\/\/www.backbeatbrewing.com"
  },
  {
    "address" : "95 Rantoul St, Beverly",
    "categories" : [
      "brewery"
    ],
    "coordinate" : {
      "latitude" : 42.5448199,
      "longitude" : -70.8845921
    },
    "name" : "Coastal Mass. Brewing",
    "phoneNumber" : "+1 (978) 969-3071",
    "website" : "https:\/\/www.coastalmassbrewing.com"
  },
  {
    "address" : "232 Rantoul St, Beverly",
    "categories" : [
      "brewery"
    ],
    "coordinate" : {
      "latitude" : 42.5493686,
      "longitude" : -70.8839007
    },
    "name" : "Old Planters Brewing Co",
    "phoneNumber" : "+1 (978) 522-6446",
    "website" : "http:\/\/www.oldplanters.com"
  },
  {
    "address" : "59 Park St, Beverly",
    "categories" : [
      "brewery"
    ],
    "coordinate" : {
      "latitude" : 42.5493632,
      "longitude" : -70.8842192
    },
    "name" : "Gentile Brewing Company",
    "phoneNumber" : "+1 (978) 969-6496",
    "website" : "http:\/\/gentilebrewing.com"
  },
  {
    "address" : "188 Essex St, Salem",
    "categories" : [
      "coffeeLocals"
    ],
    "coordinate" : {
      "latitude" : 42.5218136,
      "longitude" : -70.8937603
    },
    "name" : "The Red Line Cafe",
    "phoneNumber" : "+1 (978) 744-2235",
    "website" : "http:\/\/www.redlinecafesalem.com"
  },
  {
    "address" : "247 Essex St, Salem",
    "categories" : [
      "coffeeLocals",
      "foodRestaurant",
      "customerRestroom"
    ],
    "coordinate" : {
      "latitude" : 42.521269812227416,
      "longitude" : -70.89625003381937
    },
    "name" : "Gulu-Gulu Cafe",
    "phoneNumber" : "+1 (978) 740-8882",
    "website" : "http:\/\/www.gulugulucafe.com"
  },
  {
    "address" : "60 Washington St, Salem",
    "categories" : [
      "coffeeLocals",
      "customerRestroom"
    ],
    "coordinate" : {
      "latitude" : 42.5225422,
      "longitude" : -70.8959875
    },
    "name" : "Odd Meter Coffee Co.",
    "website" : "https:\/\/www.oddmetercoffee.com"
  },
  {
    "address" : "101 Lafayette St, Salem",
    "categories" : [
      "coffeeChain"
    ],
    "coordinate" : {
      "latitude" : 42.518343,
      "longitude" : -70.8929408
    },
    "name" : "Crave",
    "phoneNumber" : "+1 (978) 224-2362",
    "website" : "http:\/\/cravesalem.com"
  },
  {
    "address" : "20 Front St, Salem",
    "categories" : [
      "coffeeLocals"
    ],
    "coordinate" : {
      "latitude" : 42.520633,
      "longitude" : -70.894292
    },
    "name" : "Front Street Coffeehouse",
    "phoneNumber" : "+1 (978) 740-6697",
    "website" : "https:\/\/www.fscsalem.com"
  },
  {
    "address" : "281 Essex St, Salem",
    "categories" : [
      "coffeeLocals"
    ],
    "coordinate" : {
      "latitude" : 42.5213847,
      "longitude" : -70.8973632
    },
    "name" : "Life Alive Organic Cafe",
    "phoneNumber" : "+1 (978) 594-4644",
    "website" : "https:\/\/www.lifealive.com\/location\/salem"
  },
  {
    "address" : "131 Essex St, Salem",
    "categories" : [
      "coffeeLocals"
    ],
    "coordinate" : {
      "latitude" : 42.5221635,
      "longitude" : -70.8913643
    },
    "name" : "Brew Box",
    "phoneNumber" : "+1 (978) 594-5164",
    "website" : "http:\/\/www.brewboxsalem.com"
  },
  {
    "address" : "142 Derby St, Salem",
    "categories" : [
      "coffeeLocals"
    ],
    "coordinate" : {
      "latitude" : 42.5221088,
      "longitude" : -70.8857533
    },
    "name" : "Wolf Next Door Coffee",
    "phoneNumber" : "+1 (978) 594-1540",
    "website" : "https:\/\/www.wolfnextdoorcoffee.com"
  },
  {
    "address" : "36 Jefferson Ave, Salem",
    "categories" : [
      "coffeeLocals"
    ],
    "coordinate" : {
      "latitude" : 42.5142525,
      "longitude" : -70.8999668
    },
    "name" : "On The Grind Cafe",
    "phoneNumber" : "+1 (978) 594-0734",
    "website" : "http:\/\/onthegrindcafe.com\/"
  },
  {
    "address" : "197 Derby St, Salem",
    "categories" : [
      "coffeeLocals"
    ],
    "coordinate" : {
      "latitude" : 42.5208291,
      "longitude" : -70.8882161
    },
    "name" : "Jaho",
    "phoneNumber" : "+1 (978) 744-4300",
    "website" : "https:\/\/www.jaho.com"
  },
  {
    "address" : "7 Liberty St, Salem",
    "categories" : [
      "coffeeLocals"
    ],
    "coordinate" : {
      "latitude" : 42.52161135516619,
      "longitude" : -70.89233313895396
    },
    "name" : "The Atrium Cafe"
  },
  {
    "address" : "99 Washington St, Salem",
    "categories" : [
      "coffeeChain"
    ],
    "coordinate" : {
      "latitude" : 42.5217155,
      "longitude" : -70.8955843
    },
    "name" : "Honey Dew Donuts",
    "phoneNumber" : "+1 (978) 594-8197",
    "website" : "http:\/\/www.honeydewdonuts.com"
  },
  {
    "address" : "130 North St, Salem",
    "categories" : [
      "coffeeLocals",
      "customerRestroom"
    ],
    "coordinate" : {
      "latitude" : 42.5275773,
      "longitude" : -70.9019697
    },
    "name" : "Spells Coffee Shop & Market",
    "phoneNumber" : "+1 (978) 594-8259",
    "website" : "https:\/\/spellsofsalem.com"
  },
  {
    "address" : "96 Bridge St, Salem",
    "categories" : [
      "coffeeLocals"
    ],
    "coordinate" : {
      "latitude" : 42.5294412,
      "longitude" : -70.8900519
    },
    "name" : "Coffee Time Bake Shop",
    "phoneNumber" : "+1 (978) 744-0995",
    "website" : "http:\/\/coffeetimebakeshop.net"
  },
  {
    "address" : "130 Canal St, Salem",
    "categories" : [
      "coffeeLocals"
    ],
    "coordinate" : {
      "latitude" : 42.5100107,
      "longitude" : -70.8962593
    },
    "name" : "Jaho",
    "phoneNumber" : "+1 (978) 594-1485",
    "website" : "https:\/\/www.jaho.com\/pages\/jaho-roastery-salem"
  },
  {
    "address" : "211 Washington St, Salem",
    "categories" : [
      "coffeeChain"
    ],
    "coordinate" : {
      "latitude" : 42.5189807,
      "longitude" : -70.8949634
    },
    "name" : "Starbucks",
    "phoneNumber" : "+1 (978) 825-0824",
    "website" : "https:\/\/www.starbucks.com\/store-locator\/store\/15999\/"
  },
  {
    "address" : "152 Washington St, Salem",
    "categories" : [
      "coffeeChain"
    ],
    "coordinate" : {
      "latitude" : 42.5202281,
      "longitude" : -70.8958511
    },
    "name" : "Dunkin'",
    "phoneNumber" : "+1 (978) 744-9888",
    "website" : "https:\/\/locations.dunkindonuts.com\/en\/ma\/salem\/152-washington-st\/300353"
  },
  {
    "address" : "199a Rantoul St, Beverly",
    "categories" : [
      "coffeeChain"
    ],
    "coordinate" : {
      "latitude" : 42.5480049,
      "longitude" : -70.8838447
    },
    "name" : "Crave",
    "phoneNumber" : "+1 (978) 969-2567",
    "website" : "https:\/\/www.cravenorthshore.com"
  },
  {
    "address" : "57 Loring Ave, Salem",
    "categories" : [
      "coffeeLocals"
    ],
    "coordinate" : {
      "latitude" : 42.5022541,
      "longitude" : -70.8937216
    },
    "name" : "Jaho",
    "phoneNumber" : "+1 (978) 594-4743",
    "website" : "https:\/\/www.jaho.com"
  },
  {
    "address" : "268 Cabot St, Beverly",
    "categories" : [
      "coffeeLocals"
    ],
    "coordinate" : {
      "latitude" : 42.5503666,
      "longitude" : -70.8782172
    },
    "name" : "Atomic Cafe",
    "phoneNumber" : "+1 (978) 922-0042",
    "website" : "http:\/\/www.atomicafe.com"
  },
  {
    "address" : "144 Canal St, Salem",
    "categories" : [
      "coffeeChain"
    ],
    "coordinate" : {
      "latitude" : 42.5080439,
      "longitude" : -70.8963194
    },
    "name" : "Starbucks",
    "phoneNumber" : "+1 (978) 595-0025",
    "website" : "https:\/\/www.starbucks.com\/store-locator\/store\/1031793\/salem-canal-street-144-canal-street-salem-ma-01970-us"
  },
  {
    "address" : "198 Cabot St, Beverly",
    "categories" : [
      "coffeeLocals"
    ],
    "coordinate" : {
      "latitude" : 42.5481086,
      "longitude" : -70.8789903
    },
    "name" : "What's Brewin' Cafe",
    "phoneNumber" : "+1 (978) 998-6889",
    "website" : "http:\/\/whatsbrewincafe198.com"
  },
  {
    "address" : "67 Main St, Peabody",
    "categories" : [
      "coffeeLocals",
      "customerRestroom"
    ],
    "coordinate" : {
      "latitude" : 42.5245287,
      "longitude" : -70.9244618
    },
    "name" : "Breaking Grounds Cafe",
    "phoneNumber" : "+1 (978) 854-5465",
    "website" : "https:\/\/breakinggroundscafe.com"
  },
  {
    "address" : "140 Rantoul St, Beverly",
    "categories" : [
      "coffeeLocals"
    ],
    "coordinate" : {
      "latitude" : 42.546654,
      "longitude" : -70.88498
    },
    "name" : "The Castle: A Board Game Cafe",
    "phoneNumber" : "+1 (978) 969-1719",
    "website" : "http:\/\/thecastlebeverly.com"
  },
  {
    "address" : "5 W Dane St, Beverly",
    "categories" : [
      "coffeeLocals"
    ],
    "coordinate" : {
      "latitude" : 42.5522188,
      "longitude" : -70.8793205
    },
    "name" : "Kid Dream Coffee Company",
    "phoneNumber" : "+1 (978) 560-7312",
    "website" : "http:\/\/kiddreamcoffee.com"
  },
  {
    "address" : "151 1\/2 Hale St, Beverly",
    "categories" : [
      "coffeeLocals"
    ],
    "coordinate" : {
      "latitude" : 42.5521798,
      "longitude" : -70.8617974
    },
    "name" : "beantrust coffeebar",
    "website" : "http:\/\/beantrustcoffee.com"
  },
  {
    "address" : "1 New Liberty St, Salem",
    "categories" : [
      "carCharger"
    ],
    "coordinate" : {
      "latitude" : 42.522644,
      "longitude" : -70.89264
    },
    "name" : "ChargePoint",
    "phoneNumber" : "+1 (888) 758-4389",
    "website" : "http:\/\/www.chargepoint.com"
  },
  {
    "address" : "33 Federal St, Salem",
    "categories" : [
      "carCharger"
    ],
    "coordinate" : {
      "latitude" : 42.522915101756354,
      "longitude" : -70.89490737911399
    },
    "name" : "ChargePoint",
    "phoneNumber" : "+1 (888) 758-4389",
    "website" : "http:\/\/www.chargepoint.com"
  },
  {
    "address" : "73 Loring Ave, Salem",
    "categories" : [
      "carCharger"
    ],
    "coordinate" : {
      "latitude" : 42.499874,
      "longitude" : -70.89528
    },
    "name" : "ChargePoint",
    "phoneNumber" : "+1 (888) 758-4389",
    "website" : "http:\/\/www.chargepoint.com"
  },
  {
    "address" : "1 Sewall St, Salem",
    "categories" : [
      "carCharger"
    ],
    "coordinate" : {
      "latitude" : 42.521776,
      "longitude" : -70.897668
    },
    "name" : "ChargePoint",
    "phoneNumber" : "+1 (888) 758-4389",
    "website" : "http:\/\/www.chargepoint.com"
  },
  {
    "address" : "81 Highland Ave, Salem",
    "categories" : [
      "carCharger"
    ],
    "coordinate" : {
      "latitude" : 42.5121412,
      "longitude" : -70.9062022
    },
    "name" : "ChargeLab",
    "phoneNumber" : "+1 (800) 636-0986",
    "website" : "https:\/\/chargelab.co"
  },
  {
    "address" : "32 Clifton Ave, Salem",
    "categories" : [
      "carCharger"
    ],
    "coordinate" : {
      "latitude" : 42.506496,
      "longitude" : -70.88648
    },
    "name" : "ChargePoint",
    "phoneNumber" : "+1 (888) 758-4389",
    "website" : "http:\/\/www.chargepoint.com"
  },
  {
    "address" : "2 Peabody Square, Peabody",
    "categories" : [
      "carCharger"
    ],
    "coordinate" : {
      "latitude" : 42.526685,
      "longitude" : -70.928
    },
    "name" : "EV Fast Charging Station",
    "website" : "https:\/\/www.plugshare.com\/location\/424265"
  },
  {
    "address" : "401 Bridge St, Salem",
    "categories" : [
      "carCharger"
    ],
    "coordinate" : {
      "latitude" : 42.5202884,
      "longitude" : -70.9070851
    },
    "name" : "SWTCH",
    "phoneNumber" : "+1 (844) 798-2438",
    "website" : "https:\/\/swtchenergy.com"
  },
  {
    "address" : "9 Washington St, Beverly",
    "categories" : [
      "carCharger"
    ],
    "coordinate" : {
      "latitude" : 42.546348,
      "longitude" : -70.879279
    },
    "name" : "ChargePoint",
    "phoneNumber" : "+1 (888) 758-4389",
    "website" : "http:\/\/www.chargepoint.com"
  },
  {
    "address" : "10 Pond St, Beverly",
    "categories" : [
      "carCharger"
    ],
    "coordinate" : {
      "latitude" : 42.550435,
      "longitude" : -70.878914
    },
    "name" : "ChargePoint",
    "phoneNumber" : "+1 (888) 758-4389",
    "website" : "http:\/\/www.chargepoint.com"
  },
  {
    "address" : "48 Lafayette St, Salem",
    "categories" : [
      "fireStation"
    ],
    "coordinate" : {
      "latitude" : 42.519806,
      "longitude" : -70.8937079
    },
    "name" : "Salem Fire Department",
    "phoneNumber" : "+1 (978) 744-6990",
    "website" : "http:\/\/www.salem.com\/fire-department"
  },
  {
    "address" : "142 North St, Salem",
    "categories" : [
      "fireStation"
    ],
    "coordinate" : {
      "latitude" : 42.528368,
      "longitude" : -70.902796
    },
    "name" : "Salem Fire Department Station 2"
  },
  {
    "address" : "415 Essex St, Salem",
    "categories" : [
      "fireStation"
    ],
    "coordinate" : {
      "latitude" : 42.5173407,
      "longitude" : -70.9051028
    },
    "name" : "Salem Fire Department Station 4"
  },
  {
    "address" : "15 Hale St, Beverly",
    "categories" : [
      "fireStation"
    ],
    "coordinate" : {
      "latitude" : 42.5482195,
      "longitude" : -70.8772337
    },
    "name" : "Beverly Fire Department",
    "phoneNumber" : "+1 (978) 922-2424",
    "website" : "https:\/\/www.facebook.com\/Beverly-Fire-Department-167309913297600\/"
  },
  {
    "address" : "72 Washington St, Salem",
    "categories" : [
      "market"
    ],
    "coordinate" : {
      "latitude" : 42.52199997517798,
      "longitude" : -70.89591238774359
    },
    "name" : "Annie Asian Mart",
    "phoneNumber" : "+1 (978) 594-0862",
    "website" : "https:\/\/annieasianmart.com"
  },
  {
    "address" : "26 Front St, Salem",
    "categories" : [
      "market"
    ],
    "coordinate" : {
      "latitude" : 42.520621823389185,
      "longitude" : -70.8944655173851
    },
    "name" : "Whimsy's",
    "phoneNumber" : "+1 (978) 825-9111",
    "website" : "https:\/\/whimsyssweetlife.com"
  },
  {
    "address" : "140 Washington St, Salem",
    "categories" : [
      "market"
    ],
    "coordinate" : {
      "latitude" : 42.5207127,
      "longitude" : -70.8958191
    },
    "name" : "Curly Girl Candy Shop",
    "phoneNumber" : "+1 (978) 594-1553",
    "website" : "http:\/\/www.curlygirlcandy.com"
  },
  {
    "address" : "173 Essex St, Salem",
    "categories" : [
      "coffeeLocals",
      "customerRestroom"
    ],
    "coordinate" : {
      "latitude" : 42.521678879992706,
      "longitude" : -70.89303033330232
    },
    "name" : "Kakawa Chocolate House",
    "phoneNumber" : "+1 (617) 548-4567",
    "website" : "https:\/\/kakawachocolates.com"
  },
  {
    "address" : "36 Margin St, Salem",
    "categories" : [
      "market"
    ],
    "coordinate" : {
      "latitude" : 42.5191334,
      "longitude" : -70.8963337
    },
    "name" : "Steve's Quality Market",
    "phoneNumber" : "+1 (978) 744-4220",
    "website" : "https:\/\/stevesqualitymarketsalem.com\/"
  },
  {
    "address" : "32 Derby Square, Salem",
    "categories" : [
      "market"
    ],
    "coordinate" : {
      "latitude" : 42.520685304094016,
      "longitude" : -70.8946562522754
    },
    "name" : "Salem Farmers' Market",
    "phoneNumber" : "+1 (508) 517-7946",
    "website" : "http:\/\/www.salemfarmersmarket.org"
  },
  {
    "address" : "122 Derby St, Salem",
    "categories" : [
      "market"
    ],
    "coordinate" : {
      "latitude" : 42.5224786,
      "longitude" : -70.8847503
    },
    "name" : "Ye Olde Pepper Candy Companie",
    "phoneNumber" : "+1 (978) 745-2744",
    "website" : "http:\/\/www.peppercandy.net"
  },
  {
    "address" : "204 Derby St, Salem",
    "categories" : [
      "liquorStore"
    ],
    "coordinate" : {
      "latitude" : 42.5209629,
      "longitude" : -70.8884881
    },
    "name" : "The Bunghole Liquor Store",
    "phoneNumber" : "+1 (978) 744-2251",
    "website" : "http:\/\/www.bungholeliquors.com\/"
  },
  {
    "address" : "19 Howley St, Salem",
    "categories" : [
      "market"
    ],
    "coordinate" : {
      "latitude" : 42.5233327,
      "longitude" : -70.9171772
    },
    "name" : "Stop & Shop",
    "phoneNumber" : "+1 (978) 977-3900",
    "website" : "https:\/\/stores.stopandshop.com\/ma\/peabody\/19-howley-street"
  },
  {
    "address" : "227 Highland Ave, Salem",
    "categories" : [
      "market"
    ],
    "coordinate" : {
      "latitude" : 42.504612,
      "longitude" : -70.919991
    },
    "name" : "Market Basket",
    "phoneNumber" : "+1 (978) 741-0986",
    "website" : "https:\/\/www.shopmarketbasket.com\/store-locations\/salem-massachusetts-market-basket-58"
  },
  {
    "address" : "185 Essex St, Salem",
    "categories" : [
      "market"
    ],
    "coordinate" : {
      "latitude" : 42.521609735878094,
      "longitude" : -70.89365828247232
    },
    "name" : "Pamplemousse - Salem",
    "phoneNumber" : "+1 (978) 745-2900",
    "website" : "http:\/\/pmousse.com"
  },
  {
    "address" : "125 Canal St, Salem",
    "categories" : [
      "market"
    ],
    "coordinate" : {
      "latitude" : 42.5099144,
      "longitude" : -70.8950984
    },
    "name" : "Crosby’s Marketplace",
    "phoneNumber" : "+1 (978) 745-3571",
    "website" : "http:\/\/crosbysmarkets.com"
  },
  {
    "address" : "32 Church St, Salem",
    "categories" : [
      "liquorStore"
    ],
    "coordinate" : {
      "latitude" : 42.5226158,
      "longitude" : -70.8952359
    },
    "name" : "Salem Wine Imports",
    "phoneNumber" : "+1 (978) 741-9463",
    "website" : "https:\/\/salemwineimports.com"
  },
  {
    "address" : "140 Derby St, Salem",
    "categories" : [
      "market"
    ],
    "coordinate" : {
      "latitude" : 42.5221719,
      "longitude" : -70.8856309
    },
    "name" : "The Chocolate Pantry",
    "phoneNumber" : "+1 (978) 744-7000",
    "website" : "https:\/\/the-chocolate-pantry-shop.square.site"
  },
  {
    "address" : "85 Leavitt St, Salem",
    "categories" : [
      "market"
    ],
    "coordinate" : {
      "latitude" : 42.5152051,
      "longitude" : -70.8880417
    },
    "name" : "Harbor Sweets",
    "phoneNumber" : "+1 (978) 745-7648",
    "website" : "https:\/\/www.harborsweets.com\/contact"
  },
  {
    "address" : "5 Gedney St, Salem",
    "categories" : [
      "liquorStore"
    ],
    "coordinate" : {
      "latitude" : 42.5191771,
      "longitude" : -70.8968427
    },
    "name" : "Quality Liquors",
    "phoneNumber" : "+1 (978) 744-4221"
  },
  {
    "address" : "227 Highland Ave, Salem",
    "categories" : [
      "shop"
    ],
    "coordinate" : {
      "latitude" : 42.503423289123056,
      "longitude" : -70.91944713885685
    },
    "name" : "Target",
    "phoneNumber" : "+1 (978) 224-4000",
    "website" : "https:\/\/www.target.com\/sl\/salem-highland-ave\/1803"
  },
  {
    "address" : "93 Canal St, Salem",
    "categories" : [
      "market"
    ],
    "coordinate" : {
      "latitude" : 42.5118109,
      "longitude" : -70.8962006
    },
    "name" : "Salem Old Fashioned Candies",
    "phoneNumber" : "+1 (978) 744-3242"
  },
  {
    "address" : "31 Bridge St, Salem",
    "categories" : [
      "market"
    ],
    "coordinate" : {
      "latitude" : 42.533873,
      "longitude" : -70.8875774
    },
    "name" : "Richdales",
    "phoneNumber" : "+1 (978) 740-5600"
  },
  {
    "address" : "128 North St, Salem",
    "categories" : [
      "liquorStore"
    ],
    "coordinate" : {
      "latitude" : 42.5274446,
      "longitude" : -70.9017982
    },
    "name" : "Salem Liquors",
    "phoneNumber" : "+1 (978) 744-1480"
  },
  {
    "address" : "19 Howley St, Peabody",
    "categories" : [
      "gasStation"
    ],
    "coordinate" : {
      "latitude" : 42.523305,
      "longitude" : -70.9189475
    },
    "name" : "Stop & Shop Gas",
    "phoneNumber" : "+1 (978) 977-3900",
    "website" : "https:\/\/stores.stopandshop.com\/ma\/peabody\/19-howley-street"
  },
  {
    "address" : "145 Canal St, Salem",
    "categories" : [
      "gasStation"
    ],
    "coordinate" : {
      "latitude" : 42.508006,
      "longitude" : -70.8958439
    },
    "name" : "Sunoco",
    "phoneNumber" : "+1 (978) 741-2577",
    "website" : "https:\/\/www.sunoco.com\/locations\/store\/145-canal-st-salem-ma-0447906903"
  },
  {
    "address" : "81 Highland Ave, Salem",
    "categories" : [
      "hospital"
    ],
    "coordinate" : {
      "latitude" : 42.5109665,
      "longitude" : -70.9066614
    },
    "name" : "Salem Hospital",
    "phoneNumber" : "+1 (978) 741-1200",
    "website" : "https:\/\/salem.massgeneralbrigham.org\/locations\/salem_hospital"
  },
  {
    "address" : "11 Dodge St, Salem",
    "categories" : [
      "hotel"
    ],
    "coordinate" : {
      "latitude" : 42.5188314,
      "longitude" : -70.8948022
    },
    "name" : "Hampton Inn Salem Boston",
    "phoneNumber" : "+1 (978) 414-3100",
    "website" : "https:\/\/www.hilton.com\/en\/hotels\/bossahx-hampton-inn-salem-boston\/"
  },
  {
    "address" : "18 Washington Square W, Salem",
    "categories" : [
      "hotel"
    ],
    "coordinate" : {
      "latitude" : 42.522731105101364,
      "longitude" : -70.8903860887641
    },
    "name" : "Hawthorne Hotel",
    "phoneNumber" : "+1 (978) 744-4080",
    "website" : "http:\/\/www.hawthornehotel.com"
  },
  {
    "address" : "209 Essex St, Salem",
    "categories" : [
      "hotel"
    ],
    "coordinate" : {
      "latitude" : 42.5214445,
      "longitude" : -70.8942691
    },
    "name" : "The Hotel Salem",
    "phoneNumber" : "+1 (978) 451-4950",
    "website" : "https:\/\/www.thehotelsalem.com"
  },
  {
    "address" : "225 Derby St, Salem",
    "categories" : [
      "hotel",
      "publicRestroom"
    ],
    "coordinate" : {
      "latitude" : 42.5203441,
      "longitude" : -70.889387
    },
    "name" : "Salem Waterfront Hotel-Suites",
    "phoneNumber" : "+1 (978) 740-8788",
    "website" : "http:\/\/www.salemwaterfronthotel.com\/"
  },
  {
    "address" : "148 Washington St, Salem",
    "categories" : [
      "hotel"
    ],
    "coordinate" : {
      "latitude" : 42.5204398,
      "longitude" : -70.8958292
    },
    "name" : "The Merchant",
    "phoneNumber" : "+1 (978) 745-8100",
    "website" : "http:\/\/www.themerchantsalem.com"
  },
  {
    "address" : "7 Summer St, Salem",
    "categories" : [
      "hotel"
    ],
    "coordinate" : {
      "latitude" : 42.5209774,
      "longitude" : -70.8984232
    },
    "name" : "The Salem Inn",
    "phoneNumber" : "+1 (978) 741-0680",
    "website" : "https:\/\/saleminnma.com\/"
  },
  {
    "address" : "16 Winter St, Salem",
    "categories" : [
      "hotel"
    ],
    "coordinate" : {
      "latitude" : 42.5259455,
      "longitude" : -70.8905736
    },
    "name" : "Amelia Payson House",
    "phoneNumber" : "+1 (978) 744-8304",
    "website" : "http:\/\/www.ameliapaysonhouse.com"
  },
  {
    "address" : "40 Bridge St, Salem",
    "categories" : [
      "hotel"
    ],
    "coordinate" : {
      "latitude" : 42.534069,
      "longitude" : -70.889215
    },
    "name" : "The Cove At Salem",
    "phoneNumber" : "+1 (978) 955-7795",
    "website" : "https:\/\/www.coveatsalem.com"
  },
  {
    "address" : "22 Hardy St, Salem",
    "categories" : [
      "hotel"
    ],
    "coordinate" : {
      "latitude" : 42.5219184,
      "longitude" : -70.8845
    },
    "name" : "Morning Glory Bed & Breakfast",
    "phoneNumber" : "+1 (978) 741-1703",
    "website" : "http:\/\/www.morningglorybb.com\/"
  },
  {
    "address" : "284 Lafayette St, Salem",
    "categories" : [
      "hotel"
    ],
    "coordinate" : {
      "latitude" : 42.5084353,
      "longitude" : -70.8915981
    },
    "name" : "The Coach House",
    "phoneNumber" : "+1 (978) 744-4092",
    "website" : "http:\/\/www.coachhousesalem.com"
  },
  {
    "address" : "116 Lafayette St, Salem",
    "categories" : [
      "hotel"
    ],
    "coordinate" : {
      "latitude" : 42.5178853,
      "longitude" : -70.8932571
    },
    "name" : "Lafayette Hotel",
    "phoneNumber" : "+1 (978) 745-5503"
  },
  {
    "address" : "148 Washington St, Salem",
    "categories" : [
      "attraction"
    ],
    "coordinate" : {
      "latitude" : 42.520459,
      "longitude" : -70.895946
    },
    "name" : "Joshua Ward House",
    "phoneNumber" : "+1 (978) 745-0300",
    "website" : "http:\/\/en.wikipedia.org\/wiki\/index.html?curid=18750022"
  },
  {
    "address" : "98 Essex St, Salem",
    "categories" : [
      "hotel"
    ],
    "coordinate" : {
      "latitude" : 42.5226685,
      "longitude" : -70.8889657
    },
    "name" : "Suzannah Flint House",
    "phoneNumber" : "+1 (978) 744-5281",
    "website" : "http:\/\/www.hawthornehotel.com\/%E2%80%8Bdocuments\/%E2%80%8BSuzannahFlintHousebrochur%E2%80%A6"
  },
  {
    "address" : "40 Bridge St, Salem",
    "categories" : [
      "hotel"
    ],
    "coordinate" : {
      "latitude" : 42.5343027,
      "longitude" : -70.8886655
    },
    "name" : "Clipper Ship Inn",
    "phoneNumber" : "+1 (978) 745-8022"
  },
  {
    "address" : "278 Cabot St, Beverly",
    "categories" : [
      "hotel"
    ],
    "coordinate" : {
      "latitude" : 42.5507567,
      "longitude" : -70.8783512
    },
    "name" : "The Cabot Lodge",
    "phoneNumber" : "+1 (978) 998-4460",
    "website" : "http:\/\/thecabotlodge.com"
  },
  {
    "address" : "370 Essex St, Salem",
    "categories" : [
      "library"
    ],
    "coordinate" : {
      "latitude" : 42.520189,
      "longitude" : -70.903084
    },
    "name" : "Salem Public Library",
    "phoneNumber" : "+1 (978) 744-0860",
    "website" : "https:\/\/www.salempl.org\/"
  },
  {
    "address" : "132 Essex St, Salem",
    "categories" : [
      "attraction"
    ],
    "coordinate" : {
      "latitude" : 42.522489,
      "longitude" : -70.891505
    },
    "name" : "Phillips Library",
    "phoneNumber" : "+1 (978) 745-1876",
    "website" : "http:\/\/www.pem.org\/library"
  },
  {
    "address" : "337 Essex St, Salem",
    "categories" : [
      "library"
    ],
    "coordinate" : {
      "latitude" : 42.5204855,
      "longitude" : -70.900485
    },
    "name" : "Salem Athenaeum",
    "phoneNumber" : "+1 (978) 744-2540",
    "website" : "http:\/\/www.salemathenaeum.net"
  },
  {
    "address" : "82 Main St, Peabody",
    "categories" : [
      "library"
    ],
    "coordinate" : {
      "latitude" : 42.5249422,
      "longitude" : -70.924259
    },
    "name" : "Peabody Institute Library",
    "phoneNumber" : "+1 (978) 531-0100",
    "website" : "http:\/\/www.peabodylibrary.org"
  },
  {
    "address" : "32 Essex St, Beverly",
    "categories" : [
      "library"
    ],
    "coordinate" : {
      "latitude" : 42.5508949,
      "longitude" : -70.8766634
    },
    "name" : "Beverly Public Library",
    "phoneNumber" : "+1 (978) 921-6062",
    "website" : "https:\/\/beverlypubliclibrary.org\/branch\/main-library\/"
  },
  {
    "address" : "24 Congress St, Salem",
    "categories" : [
      "marina"
    ],
    "coordinate" : {
      "latitude" : 42.51970532710888,
      "longitude" : -70.8889588810441
    },
    "name" : "Mahi Mahi Harbor Cruises & Private Events",
    "phoneNumber" : "+1 (978) 825-0001",
    "website" : "http:\/\/www.mahicruises.com"
  },
  {
    "address" : "43 Water St, Beverly",
    "categories" : [
      "marina"
    ],
    "coordinate" : {
      "latitude" : 42.5413308,
      "longitude" : -70.8836067
    },
    "name" : "Beverly Port Marina",
    "phoneNumber" : "+1 (978) 232-3300",
    "website" : "http:\/\/www.beverlyportmarina.com"
  },
  {
    "address" : "10 Blaney St, Salem",
    "categories" : [
      "marina"
    ],
    "coordinate" : {
      "latitude" : 42.5218187,
      "longitude" : -70.8804984
    },
    "name" : "Sunset Sail Salem",
    "phoneNumber" : "+1 (305) 697-1024",
    "website" : "https:\/\/sunsetsailsalem.com"
  },
  {
    "address" : "24 Kernwood St, Salem",
    "categories" : [
      "marina"
    ],
    "coordinate" : {
      "latitude" : 42.5403362,
      "longitude" : -70.8990244
    },
    "name" : "Kernwood Marina",
    "phoneNumber" : "+1 (978) 744-9314"
  },
  {
    "categories" : [
      "marina"
    ],
    "coordinate" : {
      "latitude" : 42.540817,
      "longitude" : -70.885666
    },
    "name" : "Glover Wharf Municipal Marina",
    "phoneNumber" : "+1 (978) 921-6011",
    "website" : "http:\/\/gloverwharf.com"
  },
  {
    "address" : "1, Salem",
    "categories" : [
      "theater"
    ],
    "coordinate" : {
      "latitude" : 42.5226092,
      "longitude" : -70.8930695
    },
    "name" : "Cinema Salem",
    "phoneNumber" : "+1 (978) 594-1297",
    "website" : "http:\/\/www.cinemasalem.com"
  },
  {
    "address" : "19 1\/2 Washington Sq N, Salem",
    "categories" : [
      "museum",
      "customerRestroom"
    ],
    "coordinate" : {
      "latitude" : 42.5236386,
      "longitude" : -70.8910281
    },
    "name" : "Salem Witch Museum",
    "phoneNumber" : "+1 (978) 744-1692",
    "website" : "http:\/\/www.salemwitchmuseum.com"
  },
  {
    "address" : "217 Essex St, Salem",
    "categories" : [
      "museum"
    ],
    "coordinate" : {
      "latitude" : 42.521429620664385,
      "longitude" : -70.89482737648251
    },
    "name" : "Count Orlok's Nightmare Gallery",
    "phoneNumber" : "+1 (978) 740-0500",
    "website" : "http:\/\/www.nightmaregallery.com"
  },
  {
    "address" : "161 Essex St, Salem",
    "categories" : [
      "museum"
    ],
    "coordinate" : {
      "latitude" : 42.52188690393499,
      "longitude" : -70.89216839554838
    },
    "name" : "Peabody Essex Museum",
    "phoneNumber" : "+1 (978) 745-9500",
    "website" : "http:\/\/www.pem.org"
  },
  {
    "address" : "131 Essex St, Salem",
    "categories" : [
      "museum"
    ],
    "coordinate" : {
      "latitude" : 42.5221145,
      "longitude" : -70.8915138
    },
    "name" : "Halloween Museum",
    "phoneNumber" : "+1 (978) 741-1170",
    "website" : "https:\/\/www.facebook.com\/Hallaweenmuseumsalem\/"
  },
  {
    "address" : "310 1\/2 Essex St, Salem",
    "categories" : [
      "museum"
    ],
    "coordinate" : {
      "latitude" : 42.5214898,
      "longitude" : -70.8988878
    },
    "name" : "Witch House",
    "phoneNumber" : "+1 (978) 744-8815",
    "website" : "https:\/\/www.thewitchhouse.org"
  },
  {
    "address" : "16 Lynde St, Salem",
    "categories" : [
      "museum"
    ],
    "coordinate" : {
      "latitude" : 42.5224946,
      "longitude" : -70.8972141
    },
    "name" : "Witch Dungeon Museum",
    "phoneNumber" : "+1 (978) 741-3570",
    "website" : "https:\/\/www.witchdungeon.com\/witchdungeon.html"
  },
  {
    "address" : "30 Federal St, Salem",
    "categories" : [
      "museum"
    ],
    "coordinate" : {
      "latitude" : 42.5233189,
      "longitude" : -70.8956875
    },
    "name" : "Salem Museum Of Torture",
    "website" : "http:\/\/www.salemtorture.com\/"
  },
  {
    "address" : "115 Derby St, Salem",
    "categories" : [
      "museum"
    ],
    "coordinate" : {
      "latitude" : 42.521771,
      "longitude" : -70.8835369
    },
    "name" : "The House Of The Seven Gables",
    "phoneNumber" : "+1 (978) 744-0991",
    "website" : "http:\/\/www.7gables.org"
  },
  {
    "address" : "7 Lynde St, Salem",
    "categories" : [
      "museum"
    ],
    "coordinate" : {
      "latitude" : 42.5221678,
      "longitude" : -70.8966202
    },
    "name" : "Gallows Hill",
    "phoneNumber" : "+1 (978) 825-0222",
    "website" : "http:\/\/www.gallowshillsalem.com"
  },
  {
    "address" : "288 Derby St, Salem",
    "categories" : [
      "museum"
    ],
    "coordinate" : {
      "latitude" : 42.520257934858506,
      "longitude" : -70.89154063968812
    },
    "name" : "Salem Wax Museum & Salem Witch Village",
    "phoneNumber" : "+1 (978) 740-2929",
    "website" : "https:\/\/salemwaxmuseum.com"
  },
  {
    "address" : "186 Essex St, Salem",
    "categories" : [
      "museum"
    ],
    "coordinate" : {
      "latitude" : 42.5218704,
      "longitude" : -70.8936818
    },
    "name" : "International Monster Museum",
    "phoneNumber" : "+1 (978) 741-1111",
    "website" : "https:\/\/www.internationalmonstermuseum.com"
  },
  {
    "address" : "197-201 Essex Street, Salem",
    "categories" : [
      "museum"
    ],
    "coordinate" : {
      "latitude" : 42.521529282542,
      "longitude" : -70.89403631677784
    },
    "name" : "Witch History Museum",
    "phoneNumber" : "+1 (978) 741-7770",
    "website" : "http:\/\/witchhistorymuseum.com\/\/witchhistory.html"
  },
  {
    "address" : "194 3\/4 Essex Street, Salem",
    "categories" : [
      "attraction"
    ],
    "coordinate" : {
      "latitude" : 42.521818,
      "longitude" : -70.8940853
    },
    "name" : "Professor Spindlewink's World of Wizardry",
    "website" : "https:\/\/worldofwizardrysalem.com"
  },
  {
    "address" : "127 Essex St, Salem",
    "categories" : [
      "museum"
    ],
    "coordinate" : {
      "latitude" : 42.522193,
      "longitude" : -70.8908918
    },
    "name" : "Salem Witch Board Museum",
    "phoneNumber" : "+1 (781) 552-0096",
    "website" : "https:\/\/www.salemwitchboardmuseum.com\/"
  },
  {
    "address" : "274 Derby St, Salem",
    "categories" : [
      "museum"
    ],
    "coordinate" : {
      "latitude" : 42.5206309,
      "longitude" : -70.8906897
    },
    "name" : "New England Pirate Museum",
    "phoneNumber" : "+1 (978) 741-2800",
    "website" : "http:\/\/www.piratemuseum.com\/pirate.html"
  },
  {
    "address" : "18 Broad St, Salem",
    "categories" : [
      "museum"
    ],
    "coordinate" : {
      "latitude" : 42.5185116,
      "longitude" : -70.9001818
    },
    "name" : "The Pickering House",
    "phoneNumber" : "+1 (978) 744-4777",
    "website" : "https:\/\/pickeringhouse.org"
  },
  {
    "address" : "7 Lynde St, Salem",
    "categories" : [
      "museum"
    ],
    "coordinate" : {
      "latitude" : 42.5221782,
      "longitude" : -70.8962935
    },
    "name" : "The Lost Museum",
    "phoneNumber" : "+1 (978) 825-0222",
    "website" : "https:\/\/gallowshillsalem.com\/the-lost-museum\/?fbclid=IwAR39mOrZ8gDy2x-gG--F1ZRXL_ZAK4NkOo_MLL4RAy81DkUOFoZ3mDtvpBw"
  },
  {
    "address" : "96 Lafayette St, Salem",
    "categories" : [
      "museum"
    ],
    "coordinate" : {
      "latitude" : 42.5182224,
      "longitude" : -70.8934357
    },
    "name" : "Urban Art Museum Punto",
    "phoneNumber" : "+1 (978) 745-8071",
    "website" : "http:\/\/puntourbanartmuseum.org"
  },
  {
    "address" : "285 Derby St, Salem",
    "categories" : [
      "museum"
    ],
    "coordinate" : {
      "latitude" : 42.5198006,
      "longitude" : -70.8911653
    },
    "name" : "Real Pirates Salem",
    "phoneNumber" : "+1 (978) 259-1717",
    "website" : "http:\/\/www.realpiratessalem.com"
  },
  {
    "address" : "107 Boston St, Salem",
    "categories" : [
      "museum"
    ],
    "coordinate" : {
      "latitude" : 42.5204789,
      "longitude" : -70.9123162
    },
    "name" : "Salem Cat Museum",
    "website" : "https:\/\/salemcatmuseum.com"
  },
  {
    "address" : "34 Chestnut St, Salem",
    "categories" : [
      "museum"
    ],
    "coordinate" : {
      "latitude" : 42.5192523,
      "longitude" : -70.9025801
    },
    "name" : "Phillip’s House",
    "phoneNumber" : "+1 (978) 744-0440",
    "website" : "https:\/\/www.historicnewengland.org\/property\/phillips-house\/"
  },
  {
    "address" : "211 Bridge St, Salem",
    "categories" : [
      "museum"
    ],
    "coordinate" : {
      "latitude" : 42.5239139,
      "longitude" : -70.8948617
    },
    "name" : "American Burlesque Collection",
    "website" : "http:\/\/www.burlesquemuseum.org"
  },
  {
    "address" : "27 Hardy St, Salem",
    "categories" : [
      "museum"
    ],
    "coordinate" : {
      "latitude" : 42.521876,
      "longitude" : -70.883882
    },
    "name" : "Nathaniel Hawthorne Birthplace",
    "phoneNumber" : "+1 (978) 744-0991",
    "website" : "https:\/\/7gables.org"
  },
  {
    "address" : "21 High St, Salem",
    "categories" : [
      "museum"
    ],
    "coordinate" : {
      "latitude" : 42.5185481,
      "longitude" : -70.897512
    },
    "name" : "Gedney House",
    "phoneNumber" : "+1 (978) 744-0440",
    "website" : "https:\/\/www.historicnewengland.org\/property\/gedney-house\/"
  },
  {
    "address" : "98 West Ave, Salem",
    "categories" : [
      "museum"
    ],
    "coordinate" : {
      "latitude" : 42.507821,
      "longitude" : -70.88491
    },
    "name" : "Pioneer Village",
    "phoneNumber" : "+1 (978) 744-8815",
    "website" : "https:\/\/www.pioneervillagesalem.org"
  },
  {
    "address" : "Salem",
    "categories" : [
      "park"
    ],
    "coordinate" : {
      "latitude" : 42.524012,
      "longitude" : -70.889269
    },
    "name" : "Salem Common",
    "phoneNumber" : "+1 (978) 744-0180",
    "website" : "http:\/\/www.salemweb.com\/guide\/common\/"
  },
  {
    "address" : "237 Essex St, Salem",
    "categories" : [
      "park"
    ],
    "coordinate" : {
      "latitude" : 42.5212697,
      "longitude" : -70.8959697
    },
    "name" : "Lappin Park"
  },
  {
    "address" : "32-38 Clifton Ave, Salem",
    "categories" : [
      "park"
    ],
    "coordinate" : {
      "latitude" : 42.5060961,
      "longitude" : -70.884532
    },
    "name" : "Forest River Park",
    "phoneNumber" : "+1 (978) 744-0180",
    "website" : "https:\/\/www.salem.org\/listing\/forest-river-park\/"
  },
  {
    "address" : "289 Derby St, Salem",
    "categories" : [
      "park"
    ],
    "coordinate" : {
      "latitude" : 42.5197909,
      "longitude" : -70.8918232
    },
    "name" : "Waterfront Park"
  },
  {
    "address" : "165 Ft Ave, Salem",
    "categories" : [
      "park"
    ],
    "coordinate" : {
      "latitude" : 42.5358801,
      "longitude" : -70.869627
    },
    "name" : "Salem Willows Park",
    "phoneNumber" : "+1 (978) 745-0251",
    "website" : "http:\/\/www.salemwillowspark.com"
  },
  {
    "address" : "50 Winter Island Rd, Salem",
    "categories" : [
      "park"
    ],
    "coordinate" : {
      "latitude" : 42.52666864215364,
      "longitude" : -70.86961086401122
    },
    "name" : "Winter Island Park",
    "phoneNumber" : "+1 (978) 745-9430",
    "website" : "https:\/\/www.salem.com\/winter-island-park"
  },
  {
    "address" : "71 Commercial St, Salem",
    "categories" : [
      "park"
    ],
    "coordinate" : {
      "latitude" : 42.5235789,
      "longitude" : -70.9011007
    },
    "name" : "Leslie's Retreat Dog Park",
    "website" : "http:\/\/www.salemspace.org"
  },
  {
    "address" : "20 Franklin St, Salem",
    "categories" : [
      "park"
    ],
    "coordinate" : {
      "latitude" : 42.5282983,
      "longitude" : -70.8976659
    },
    "name" : "Furlong Park"
  },
  {
    "address" : "55 Ober St, Beverly",
    "categories" : [
      "park"
    ],
    "coordinate" : {
      "latitude" : 42.5457811,
      "longitude" : -70.8610117
    },
    "name" : "David S. Lynch Memorial Park",
    "phoneNumber" : "+1 (978) 921-6067",
    "website" : "https:\/\/www.bevrec.com\/the-park"
  },
  {
    "address" : "12-14 Langdon St, Salem",
    "categories" : [
      "park"
    ],
    "coordinate" : {
      "latitude" : 42.5159353,
      "longitude" : -70.9121787
    },
    "name" : "Gallows Hill Park",
    "phoneNumber" : "+1 (877) 725-3662",
    "website" : "http:\/\/www.salem.org"
  },
  {
    "address" : "295 Derby St, Salem",
    "categories" : [
      "park"
    ],
    "coordinate" : {
      "latitude" : 42.5188309,
      "longitude" : -70.8917472
    },
    "name" : "15 Peabody Street Park"
  },
  {
    "address" : "91 Sylvester Ave, Beverly",
    "categories" : [
      "park"
    ],
    "coordinate" : {
      "latitude" : 42.546777,
      "longitude" : -70.9004939
    },
    "name" : "Obear Park"
  },
  {
    "address" : "30 Leavitt St, Salem",
    "categories" : [
      "park"
    ],
    "coordinate" : {
      "latitude" : 42.5139943,
      "longitude" : -70.8893977
    },
    "name" : "Palmer Cove Park",
    "website" : "https:\/\/www.salem.com\/planning-and-community-development\/pages\/palmer-cove-park"
  },
  {
    "address" : "17 May St, Salem",
    "categories" : [
      "park"
    ],
    "coordinate" : {
      "latitude" : 42.5172073,
      "longitude" : -70.9071465
    },
    "name" : "Splaine Park"
  },
  {
    "address" : "128 Derby St, Salem",
    "categories" : [
      "park"
    ],
    "coordinate" : {
      "latitude" : 42.522446,
      "longitude" : -70.8850827
    },
    "name" : "Swiniuch Park",
    "phoneNumber" : "+1 (978) 740-1650"
  },
  {
    "address" : "33 Lothrop St, Beverly",
    "categories" : [
      "park"
    ],
    "coordinate" : {
      "latitude" : 42.5425916,
      "longitude" : -70.8766866
    },
    "name" : "Independence Park",
    "phoneNumber" : "+1 (978) 921-6067"
  },
  {
    "address" : "93 Lothrop St, Beverly",
    "categories" : [
      "park"
    ],
    "coordinate" : {
      "latitude" : 42.5479182,
      "longitude" : -70.8705834
    },
    "name" : "Lyons Park",
    "phoneNumber" : "+1 (978) 921-6067"
  },
  {
    "address" : "23 Essex St, Beverly",
    "categories" : [
      "park"
    ],
    "coordinate" : {
      "latitude" : 42.5502579,
      "longitude" : -70.8748514
    },
    "name" : "Beverly Common"
  },
  {
    "address" : "203 North St, Salem",
    "categories" : [
      "park"
    ],
    "coordinate" : {
      "latitude" : 42.5301949,
      "longitude" : -70.909269
    },
    "name" : "McGlew Park",
    "phoneNumber" : "+1 (978) 744-0180",
    "website" : "https:\/\/www.facebook.com\/FriendsofMcGlewPark\/"
  },
  {
    "address" : "1 New Liberty St, Salem",
    "categories" : [
      "parking"
    ],
    "coordinate" : {
      "latitude" : 42.522513042382585,
      "longitude" : -70.89251295277977
    },
    "name" : "Parking",
    "phoneNumber" : "+1 (978) 745-8120",
    "website" : "https:\/\/www.salem.org\/travel-info\/parking\/"
  },
  {
    "address" : "10 Congress St, Salem",
    "categories" : [
      "parking",
      "publicRestroom"
    ],
    "coordinate" : {
      "latitude" : 42.52039984124267,
      "longitude" : -70.89053717211429
    },
    "name" : "South Harbor Garage",
    "phoneNumber" : "+1 (978) 745-8120",
    "website" : "https:\/\/www.salem.com\/parking\/pages\/parking-rates-locations-hours"
  },
  {
    "address" : "252 Bridge St, Salem",
    "categories" : [
      "parking"
    ],
    "coordinate" : {
      "latitude" : 42.5245973,
      "longitude" : -70.8962445
    },
    "name" : "MBTA Parking",
    "phoneNumber" : "+1 (617) 222-3200",
    "website" : "https:\/\/www.mbta.com\/stops\/place-ER-0168"
  },
  {
    "address" : "Brown St & Church St, Salem",
    "categories" : [
      "parking"
    ],
    "coordinate" : {
      "latitude" : 42.522764,
      "longitude" : -70.8931633
    },
    "name" : "Church Street Garage"
  },
  {
    "address" : "15 Federal St, Unit 19, Salem",
    "categories" : [
      "parking"
    ],
    "coordinate" : {
      "latitude" : 42.5229441,
      "longitude" : -70.8943311
    },
    "name" : "Public Parking",
    "phoneNumber" : "+1 (978) 745-8120",
    "website" : "https:\/\/www.salem.org\/travel-info\/parking\/"
  },
  {
    "address" : "10 Sewall St, Salem",
    "categories" : [
      "parking"
    ],
    "coordinate" : {
      "latitude" : 42.5219223,
      "longitude" : -70.8973148
    },
    "name" : "Parking",
    "phoneNumber" : "+1 (978) 745-8120"
  },
  {
    "address" : "120 Washington St, Salem",
    "categories" : [
      "parking"
    ],
    "coordinate" : {
      "latitude" : 42.5209526,
      "longitude" : -70.8961648
    },
    "name" : "Citylift Parking",
    "phoneNumber" : "+1 (978) 306-2252"
  },
  {
    "address" : "3 Front St, Salem",
    "categories" : [
      "parking"
    ],
    "coordinate" : {
      "latitude" : 42.5201671,
      "longitude" : -70.8940635
    },
    "name" : "Public Parking",
    "phoneNumber" : "+1 (978) 745-8120"
  },
  {
    "address" : "45 Margin St, Salem",
    "categories" : [
      "parking"
    ],
    "coordinate" : {
      "latitude" : 42.5187464,
      "longitude" : -70.8959113
    },
    "name" : "Public Parking",
    "phoneNumber" : "+1 (978) 745-8120"
  },
  {
    "address" : "4 Church St, Salem",
    "categories" : [
      "parking"
    ],
    "coordinate" : {
      "latitude" : 42.5230917,
      "longitude" : -70.8935658
    },
    "name" : "Parking",
    "phoneNumber" : "+1 (978) 745-8120"
  },
  {
    "address" : "287 Essex St, Salem",
    "categories" : [
      "parking"
    ],
    "coordinate" : {
      "latitude" : 42.521073,
      "longitude" : -70.8977675
    },
    "name" : "Crombie Street Jerry's Lot",
    "phoneNumber" : "+1 (978) 745-8120"
  },
  {
    "address" : "11 Dodge St, Salem",
    "categories" : [
      "parking"
    ],
    "coordinate" : {
      "latitude" : 42.5185249,
      "longitude" : -70.8947003
    },
    "name" : "Public Parking",
    "phoneNumber" : "+1 (978) 414-3100"
  },
  {
    "address" : "21 Church St, Salem",
    "categories" : [
      "parking"
    ],
    "coordinate" : {
      "latitude" : 42.522515,
      "longitude" : -70.8939632
    },
    "name" : "parking",
    "phoneNumber" : "+1 (978) 745-8120"
  },
  {
    "address" : "211 Washington St, Salem",
    "categories" : [
      "parking"
    ],
    "coordinate" : {
      "latitude" : 42.5191966,
      "longitude" : -70.8951153
    },
    "name" : "Public Parking",
    "phoneNumber" : "+1 (978) 745-8120"
  },
  {
    "address" : "29 New Derby St, Salem",
    "categories" : [
      "parking"
    ],
    "coordinate" : {
      "latitude" : 42.519422,
      "longitude" : -70.894293
    },
    "name" : "Public Parking",
    "phoneNumber" : "+1 (978) 744-7442"
  },
  {
    "address" : "161 Bridge St, Salem",
    "categories" : [
      "parking"
    ],
    "coordinate" : {
      "latitude" : 42.5250097,
      "longitude" : -70.8929461
    },
    "name" : "Old Salem Jail Lot"
  },
  {
    "address" : "88 Rantoul St, Beverly",
    "categories" : [
      "parking"
    ],
    "coordinate" : {
      "latitude" : 42.5454596,
      "longitude" : -70.8854486
    },
    "name" : "Public Parking",
    "phoneNumber" : "+1 (617) 222-3200"
  },
  {
    "address" : "200 Essex St, Salem",
    "categories" : [
      "pharmacy"
    ],
    "coordinate" : {
      "latitude" : 42.52170242198726,
      "longitude" : -70.89432591285706
    },
    "name" : "CVS Pharmacy",
    "phoneNumber" : "+1 (978) 744-2224",
    "website" : "https:\/\/www.cvs.com\/store-locator\/cvs-pharmacy-address\/map\/200+Essex+Street-Salem-MA-01970\/storeid=261"
  },
  {
    "address" : "29 New Derby St, Salem",
    "categories" : [
      "pharmacy"
    ],
    "coordinate" : {
      "latitude" : 42.5194186,
      "longitude" : -70.8945269
    },
    "name" : "Walgreens",
    "phoneNumber" : "+1 (978) 744-7442",
    "website" : "https:\/\/www.walgreens.com\/locator\/walgreens-29+new+derby+st-salem-ma-01970\/id=2063"
  },
  {
    "address" : "426 Essex St, Salem",
    "categories" : [
      "pharmacy"
    ],
    "coordinate" : {
      "latitude" : 42.51648,
      "longitude" : -70.90633
    },
    "name" : "CVS Pharmacy",
    "phoneNumber" : "+1 (978) 741-0484",
    "website" : "https:\/\/www.cvs.com\/store-locator\/cvs-pharmacy-address\/map\/426b+Essex+Street-Salem-MA-01970\/storeid=457"
  },
  {
    "address" : "300 Canal St, Salem",
    "categories" : [
      "pharmacy"
    ],
    "coordinate" : {
      "latitude" : 42.5009937,
      "longitude" : -70.8965706
    },
    "name" : "CVS Pharmacy",
    "phoneNumber" : "+1 (978) 740-2912",
    "website" : "https:\/\/www.cvs.com\/store-locator\/cvs-pharmacy-address\/map\/300+Canal+Street-Salem-MA-01970\/storeid=7109"
  },
  {
    "address" : "174 Main St, Peabody",
    "categories" : [
      "pharmacy"
    ],
    "coordinate" : {
      "latitude" : 42.5233145,
      "longitude" : -70.9199932
    },
    "name" : "CVS Pharmacy",
    "phoneNumber" : "+1 (978) 977-4844",
    "website" : "https:\/\/www.cvs.com\/store-locator\/cvs-pharmacy-address\/map\/174+Main+Street-Peabody-MA-01960\/storeid=4073"
  },
  {
    "address" : "35 Main St, Peabody",
    "categories" : [
      "pharmacy"
    ],
    "coordinate" : {
      "latitude" : 42.5250758,
      "longitude" : -70.9259574
    },
    "name" : "Walgreens",
    "phoneNumber" : "+1 (978) 977-9211",
    "website" : "https:\/\/www.walgreens.com\/locator\/walgreens-35+main+st-peabody-ma-01960\/id=2208"
  },
  {
    "address" : "2 Margin St, Salem",
    "categories" : [
      "postOffice"
    ],
    "coordinate" : {
      "latitude" : 42.5195671,
      "longitude" : -70.8965103
    },
    "name" : "United States Postal Service",
    "phoneNumber" : "+1 (800) 275-8777",
    "website" : "https:\/\/tools.usps.com\/locations\/details\/1380484"
  },
  {
    "address" : "13 Wallis St, Peabody",
    "categories" : [
      "postOffice"
    ],
    "coordinate" : {
      "latitude" : 42.5257948,
      "longitude" : -70.9245727
    },
    "name" : "United States Postal Service",
    "phoneNumber" : "+1 (800) 275-8777",
    "website" : "https:\/\/tools.usps.com\/locations\/details\/1386280"
  },
  {
    "address" : "151 Rantoul St, Beverly",
    "categories" : [
      "postOffice"
    ],
    "coordinate" : {
      "latitude" : 42.5471357,
      "longitude" : -70.8838506
    },
    "name" : "United States Postal Service",
    "phoneNumber" : "+1 (800) 275-8777",
    "website" : "https:\/\/tools.usps.com\/locations\/details\/1354865"
  },
  {
    "address" : "125 Washington St, Salem",
    "categories" : [
      "foodRestaurant",
      "customerRestroom"
    ],
    "coordinate" : {
      "latitude" : 42.5210754,
      "longitude" : -70.8953646
    },
    "name" : "Ledger Restaurant & Bar",
    "phoneNumber" : "+1 (978) 594-1908",
    "website" : "http:\/\/www.ledgersalem.com"
  },
  {
    "address" : "231 Essex St, Salem",
    "categories" : [
      "foodRestaurant"
    ],
    "coordinate" : {
      "latitude" : 42.5213857,
      "longitude" : -70.8952438
    },
    "name" : "Rockafellas",
    "phoneNumber" : "+1 (978) 745-2411",
    "website" : "http:\/\/www.rockafellasofsalem.com\/"
  },
  {
    "address" : "43 Church St, Salem",
    "categories" : [
      "seafood",
      "customerRestroom"
    ],
    "coordinate" : {
      "latitude" : 42.5224788,
      "longitude" : -70.8952488
    },
    "name" : "Turner's Seafood",
    "phoneNumber" : "+1 (978) 745-7665",
    "website" : "https:\/\/www.turners-seafood.com\/salem-ma"
  },
  {
    "address" : "122 Washington St, Salem",
    "categories" : [
      "diner"
    ],
    "coordinate" : {
      "latitude" : 42.5209837,
      "longitude" : -70.895755
    },
    "name" : "The Ugly Mug Diner",
    "phoneNumber" : "+1 (978) 745-6844",
    "website" : "http:\/\/uglymugdiner.com"
  },
  {
    "address" : "189 Washington St, Salem",
    "categories" : [
      "foodRestaurant",
      "bar",
      "customerRestroom"
    ],
    "coordinate" : {
      "latitude" : 42.5197616,
      "longitude" : -70.8950145
    },
    "name" : "The Derby",
    "phoneNumber" : "+1 (978) 740-2337",
    "website" : "https:\/\/www.thederbysalem.com"
  },
  {
    "address" : "87 Washington St, Salem",
    "categories" : [
      "foodRestaurant",
      "bar",
      "customerRestroom"
    ],
    "coordinate" : {
      "latitude" : 42.521988570080765,
      "longitude" : -70.89560803335328
    },
    "name" : "Dire Wolf Tavern",
    "phoneNumber" : "+1 (978) 744-9600",
    "website" : "https:\/\/www.direwolfsalem.com\/"
  },
  {
    "address" : "283 Derby St, Salem",
    "categories" : [
      "foodRestaurant"
    ],
    "coordinate" : {
      "latitude" : 42.5201927,
      "longitude" : -70.8909837
    },
    "name" : "Witchside Tavern",
    "phoneNumber" : "+1 (978) 741-4648",
    "website" : "http:\/\/witchsidetavern.com"
  },
  {
    "address" : "25 Front St, Salem",
    "categories" : [
      "foodRestaurant",
      "bar",
      "customerRestroom"
    ],
    "coordinate" : {
      "latitude" : 42.520215496827795,
      "longitude" : -70.89459414191474
    },
    "name" : "The Lobster Shanty",
    "phoneNumber" : "+1 (978) 745-5449",
    "website" : "http:\/\/lobstershantysalem.com"
  },
  {
    "address" : "15 Central St, Salem",
    "categories" : [
      "diner",
      "customerRestroom"
    ],
    "coordinate" : {
      "latitude" : 42.521067325194515,
      "longitude" : -70.89347760101217
    },
    "name" : "Red's Sandwich Shop",
    "phoneNumber" : "+1 (978) 745-3527",
    "website" : "http:\/\/www.redssandwichshop.com"
  },
  {
    "address" : "94 Lafayette St, Salem",
    "categories" : [
      "eastAsian"
    ],
    "coordinate" : {
      "latitude" : 42.518368,
      "longitude" : -70.893561
    },
    "name" : "Witch City Hibachi",
    "phoneNumber" : "+1 (978) 594-0832",
    "website" : "https:\/\/www.witchcityhibachi.com"
  },
  {
    "address" : "76 Lafayette St, Salem",
    "categories" : [
      "latinAmerican",
      "bar",
      "customerRestroom"
    ],
    "coordinate" : {
      "latitude" : 42.5193629,
      "longitude" : -70.8938386
    },
    "name" : "Howling Wolf Taqueria",
    "phoneNumber" : "+1 (978) 744-9653",
    "website" : "https:\/\/howlingwolf.com\/"
  },
  {
    "address" : "41 Lafayette St, Salem",
    "categories" : [
      "latinAmerican",
      "bar",
      "customerRestroom"
    ],
    "coordinate" : {
      "latitude" : 42.5201908,
      "longitude" : -70.893318
    },
    "name" : "Barrio Tacos",
    "phoneNumber" : "+1 (978) 594-8854",
    "website" : "https:\/\/barrio-tacos.com\/locations\/salem\/"
  },
  {
    "address" : "65 Washington St, Salem",
    "categories" : [
      "foodRestaurant",
      "customerRestroom"
    ],
    "coordinate" : {
      "latitude" : 42.522632,
      "longitude" : -70.8953498
    },
    "name" : "Bernadette",
    "phoneNumber" : "+1 (978) 224-2976",
    "website" : "http:\/\/www.bernadettesalem.com"
  },
  {
    "address" : "155 Washington St, Salem",
    "categories" : [
      "foodRestaurant",
      "bar",
      "customerRestroom"
    ],
    "coordinate" : {
      "latitude" : 42.5203802,
      "longitude" : -70.8951769
    },
    "name" : "Adriatic Restaurant & Bar",
    "phoneNumber" : "+1 (978) 594-1832",
    "website" : "http:\/\/adriaticrestaurantandbar.com"
  },
  {
    "address" : "118 Washington St, Salem",
    "categories" : [
      "foodRestaurant",
      "customerRestroom"
    ],
    "coordinate" : {
      "latitude" : 42.5212062,
      "longitude" : -70.8962092
    },
    "name" : "Flying Saucer Pizza Company",
    "phoneNumber" : "+1 (978) 594-8189",
    "website" : "http:\/\/www.flyingsaucerpizzacompany.com"
  },
  {
    "address" : "118 Washington St, Salem",
    "categories" : [
      "eastAsian",
      "seafood",
      "customerRestroom"
    ],
    "coordinate" : {
      "latitude" : 42.52112421774527,
      "longitude" : -70.89577510404838
    },
    "name" : "Ginger Seafood",
    "phoneNumber" : "+1 (978) 594-5558",
    "website" : "http:\/\/www.gingerseafood.com"
  },
  {
    "address" : "86 Wharf St, Salem",
    "categories" : [
      "seafood",
      "bar",
      "customerRestroom"
    ],
    "coordinate" : {
      "latitude" : 42.5196492,
      "longitude" : -70.8877077
    },
    "name" : "Finz Seafood & Grill",
    "phoneNumber" : "+1 (978) 744-8485",
    "website" : "http:\/\/www.hipfinz.com"
  },
  {
    "address" : "7 Church St, Ste 139, Salem",
    "categories" : [
      "foodRestaurant"
    ],
    "coordinate" : {
      "latitude" : 42.522566965239974,
      "longitude" : -70.89352843099002
    },
    "name" : "Not Ya Mama's Vegan Cafe",
    "phoneNumber" : "+1 (351) 666-0739",
    "website" : "https:\/\/notyamamascafe.com"
  },
  {
    "address" : "232 Essex St, Salem",
    "categories" : [
      "foodRestaurant",
      "customerRestroom"
    ],
    "coordinate" : {
      "latitude" : 42.5214982,
      "longitude" : -70.8954999
    },
    "name" : "Fountain Place Restaurant",
    "phoneNumber" : "+1 (978) 744-9572",
    "website" : "https:\/\/www.fountainplacerestaurant.com"
  },
  {
    "address" : "18 Washington Square W, Salem",
    "categories" : [
      "foodRestaurant",
      "bar"
    ],
    "coordinate" : {
      "latitude" : 42.522797917400226,
      "longitude" : -70.89038674704499
    },
    "name" : "The Tavern",
    "phoneNumber" : "+1 (978) 744-4080",
    "website" : "https:\/\/www.hawthornehotel.com\/dining\/the-tavern\/"
  },
  {
    "address" : "288 Derby St, Salem",
    "categories" : [
      "italian",
      "eastAsian",
      "customerRestroom"
    ],
    "coordinate" : {
      "latitude" : 42.52022685945796,
      "longitude" : -70.8915769590361
    },
    "name" : "Bambolina",
    "phoneNumber" : "+1 (978) 594-8709",
    "website" : "http:\/\/www.bambolinarestaurant.com"
  },
  {
    "address" : "18 Washington Square W, Salem",
    "categories" : [
      "foodRestaurant"
    ],
    "coordinate" : {
      "latitude" : 42.52262338351807,
      "longitude" : -70.89027476069772
    },
    "name" : "Nathaniel's",
    "phoneNumber" : "+1 (978) 744-4080",
    "website" : "https:\/\/www.hawthornehotel.com\/nathaniels\/"
  },
  {
    "address" : "90 Washington St, Salem",
    "categories" : [
      "eastAsian",
      "bar",
      "customerRestroom"
    ],
    "coordinate" : {
      "latitude" : 42.52196140836222,
      "longitude" : -70.8959048472702
    },
    "name" : "Koto Asian Fusion",
    "phoneNumber" : "+1 (978) 594-8681",
    "website" : "https:\/\/kotoasianfusion.com\/"
  },
  {
    "address" : "94 Wharf St, Salem",
    "categories" : [
      "seafood",
      "bar",
      "customerRestroom"
    ],
    "coordinate" : {
      "latitude" : 42.52022425872326,
      "longitude" : -70.88785381410267
    },
    "name" : "Sea Level Oyster Bar",
    "phoneNumber" : "+1 (978) 741-0555",
    "website" : "http:\/\/www.sealeveloysterbar.com"
  },
  {
    "address" : "209 Essex St, Salem",
    "categories" : [
      "foodRestaurant"
    ],
    "coordinate" : {
      "latitude" : 42.5213076,
      "longitude" : -70.8942583
    },
    "name" : "Counter",
    "phoneNumber" : "+1 (978) 451-4950",
    "website" : "http:\/\/countersalem.com"
  },
  {
    "address" : "14 New Derby St, Salem",
    "categories" : [
      "italian",
      "customerRestroom"
    ],
    "coordinate" : {
      "latitude" : 42.51962727151426,
      "longitude" : -70.89388094926163
    },
    "name" : "Garcon Super Slice Pizza Parlor",
    "phoneNumber" : "+1 (978) 594-5771",
    "website" : "https:\/\/www.garconsuperslicepizzapieparlor.com"
  },
  {
    "address" : "90 Lafayette St, Salem",
    "categories" : [
      "mediterranean",
      "customerRestroom"
    ],
    "coordinate" : {
      "latitude" : 42.5185971,
      "longitude" : -70.8934125
    },
    "name" : "Ray Adea's Mediterranean Kitchen",
    "phoneNumber" : "+1 (978) 594-4271",
    "website" : "https:\/\/www.rayadeasmk.com"
  },
  {
    "address" : "62 Wharf St, Salem",
    "categories" : [
      "italian"
    ],
    "coordinate" : {
      "latitude" : 42.5199895,
      "longitude" : -70.8883741
    },
    "name" : "Amazing Pizza",
    "phoneNumber" : "+1 (978) 594-4102",
    "website" : "https:\/\/amazingpizzama.com"
  },
  {
    "address" : "1 Water St, Beverly",
    "categories" : [
      "seafood",
      "pub"
    ],
    "coordinate" : {
      "latitude" : 42.5407765,
      "longitude" : -70.8855843
    },
    "name" : "Mission Boathouse",
    "phoneNumber" : "+1 (978) 720-8333",
    "website" : "https:\/\/missionboathouse.com"
  },
  {
    "address" : "15 Bridge St, Salem",
    "categories" : [
      "foodRestaurant"
    ],
    "coordinate" : {
      "latitude" : 42.5350941,
      "longitude" : -70.8866421
    },
    "name" : "99 Restaurants",
    "phoneNumber" : "+1 (978) 740-8999",
    "website" : "http:\/\/www.99restaurants.com"
  },
  {
    "address" : "9 Bridge St, Salem",
    "categories" : [
      "foodRestaurant"
    ],
    "coordinate" : {
      "latitude" : 42.5357685,
      "longitude" : -70.8867068
    },
    "name" : "Bill & Bob's Roast Beef",
    "phoneNumber" : "+1 (978) 744-9835",
    "website" : "http:\/\/www.billandbobs.com"
  },
  {
    "address" : "102 Webb St, Salem",
    "categories" : [
      "italian"
    ],
    "coordinate" : {
      "latitude" : 42.5276263,
      "longitude" : -70.8882465
    },
    "name" : "Piccolo Piatti",
    "phoneNumber" : "+1 (978) 971-7918"
  },
  {
    "address" : "84 Derby St, Salem",
    "categories" : [
      "market"
    ],
    "coordinate" : {
      "latitude" : 42.5232983,
      "longitude" : -70.8831389
    },
    "name" : "Maitland Farm, Kitchen and Spirits",
    "phoneNumber" : "+1 (978) 306-7097",
    "website" : "https:\/\/www.facebook.com\/people\/Maitland-farm-kitchen-spirits\/61555903679374\/"
  },
  {
    "address" : "256 Cabot St, Beverly",
    "categories" : [
      "foodRestaurant"
    ],
    "coordinate" : {
      "latitude" : 42.5499927,
      "longitude" : -70.8781847
    },
    "name" : "SOMA",
    "phoneNumber" : "+1 (978) 524-0033",
    "website" : "http:\/\/www.somabeverly.com"
  },
  {
    "address" : "179 Fort Ave, Salem",
    "categories" : [
      "latinAmerican"
    ],
    "coordinate" : {
      "latitude" : 42.5349875,
      "longitude" : -70.8691559
    },
    "name" : "Super Taco",
    "phoneNumber" : "+1 (978) 594-1436",
    "website" : "https:\/\/www.yelp.com\/biz\/super-taco-salem"
  },
  {
    "address" : "170 Ft Ave, Boston",
    "categories" : [
      "italian"
    ],
    "coordinate" : {
      "latitude" : 42.5347114,
      "longitude" : -70.8696719
    },
    "name" : "Peppy's Pizzeria",
    "phoneNumber" : "+1 (978) 744-9444",
    "website" : "http:\/\/diningoption.com\/PeppysPizzeria\/"
  },
  {
    "address" : "261 Cabot St, Beverly",
    "categories" : [
      "foodRestaurant"
    ],
    "coordinate" : {
      "latitude" : 42.5501972,
      "longitude" : -70.877583
    },
    "name" : "Delphine's Kitchen",
    "phoneNumber" : "+1 (978) 922-2053",
    "website" : "https:\/\/delphineskitchen.com"
  },
  {
    "address" : "96 North St, Salem",
    "categories" : [
      "diner",
      "customerRestroom"
    ],
    "coordinate" : {
      "latitude" : 42.5261559,
      "longitude" : -70.9003251
    },
    "name" : "Salem's Retreat",
    "phoneNumber" : "+1 (978) 290-0958",
    "website" : "http:\/\/www.Salemsretreat.com\/"
  },
  {
    "address" : "10 Margin St, Peabody",
    "categories" : [
      "foodRestaurant"
    ],
    "coordinate" : {
      "latitude" : 42.532711,
      "longitude" : -70.9138602
    },
    "name" : "The Peabody Diner",
    "phoneNumber" : "+1 (978) 854-5800",
    "website" : "http:\/\/www.fb.com\/thepeabodydiner"
  },
  {
    "address" : "72 Walnut St, Peabody",
    "categories" : [
      "foodRestaurant"
    ],
    "coordinate" : {
      "latitude" : 42.5262324,
      "longitude" : -70.921041
    },
    "name" : "From Brazil Restaurant & Lounge",
    "phoneNumber" : "+1 (978) 532-1530",
    "website" : "https:\/\/www.instagram.com\/frombrazilrestaurant"
  },
  {
    "address" : "4 Boston St, Salem",
    "categories" : [
      "diner",
      "customerRestroom"
    ],
    "coordinate" : {
      "latitude" : 42.518097,
      "longitude" : -70.905769
    },
    "name" : "Black Cat Diner",
    "phoneNumber" : "+1 (978) 224-2472",
    "website" : "https:\/\/www.facebook.com\/people\/Black-Cat-Diner\/100067762194802\/"
  },
  {
    "address" : "145 North St, Salem",
    "categories" : [
      "foodRestaurant",
      "seafood"
    ],
    "coordinate" : {
      "latitude" : 42.5288176,
      "longitude" : -70.9041129
    },
    "name" : "Kings Roast Beef, Pizza, Seafood",
    "phoneNumber" : "+1 (978) 745-7779",
    "website" : "http:\/\/www.kingsroastbeef.com"
  },
  {
    "address" : "408 Essex St, Salem",
    "categories" : [
        "italian"
    ],
    "coordinate" : {
      "latitude" : 42.5180015,
      "longitude" : -70.9055045
    },
    "name" : "Mandee's Pizza",
    "phoneNumber" : "+1 (978) 745-6400",
    "website" : "https:\/\/www.mandeespizza.net"
  },
  {
    "address" : "6 Boston St, Salem",
    "categories" : [
      "foodRestaurant"
    ],
    "coordinate" : {
      "latitude" : 42.5181129,
      "longitude" : -70.9059348
    },
    "name" : "Honga",
    "phoneNumber" : "+1 (978) 744-2510",
    "website" : "https:\/\/hongasalem.com"
  },
  {
    "address" : "299 Essex St, Salem",
    "categories" : [
      "eastAsian",
      "customerRestroom"
    ],
    "coordinate" : {
      "latitude" : 42.5213507,
      "longitude" : -70.8982048
    },
    "name" : "Bonchon",
    "phoneNumber" : "+1 (978) 594-8256",
    "website" : "https:\/\/restaurants.bonchon.com\/locations\/ma\/salem\/299-essex-st"
  },
  {
    "address" : "28 Norman St, #2, Salem",
    "categories" : [
      "eastAsian"
    ],
    "coordinate" : {
      "latitude" : 42.5203797,
      "longitude" : -70.8974366
    },
    "name" : "Hong Kong King",
    "phoneNumber" : "+1 (978) 740-8727",
    "website" : "http:\/\/www.hongkongkingsalem.com"
  },
  {
    "address" : "107 Essex St, Salem",
    "categories" : [
      "italian"
    ],
    "coordinate" : {
      "latitude" : 42.5224801,
      "longitude" : -70.8899726
    },
    "name" : "Bella Verona",
    "phoneNumber" : "+1 (978) 825-9911",
    "website" : "http:\/\/www.bellaverona.com\/"
  },
  {
    "address" : "77 Wilson Street, Salem",
    "categories" : [
      "school"
    ],
    "coordinate" : {
      "latitude" : 42.5063418,
      "longitude" : -70.9115928
    },
    "name" : "Salem High School",
    "phoneNumber" : "+1 (978) 740-1123",
    "website" : "https:\/\/spssalemhs.salemk12.org"
  },
  {
    "address" : "60 Northend St, Peabody",
    "categories" : [
      "school"
    ],
    "coordinate" : {
      "latitude" : 42.5322291,
      "longitude" : -70.91766
    },
    "name" : "Thomas Carroll Elementary School",
    "phoneNumber" : "+1 (978) 536-4200",
    "website" : "https:\/\/peabody.k12.ma.us\/schools\/carroll-elementary\/"
  },
  {
    "address" : "1 Frederick St, Salem",
    "categories" : [
      "school"
    ],
    "coordinate" : {
      "latitude" : 42.5166794,
      "longitude" : -70.9199529
    },
    "name" : "Witchcraft Heights Elementary School",
    "phoneNumber" : "+1 (978) 740-1271",
    "website" : "https:\/\/spswhes.salemk12.org"
  },
  {
    "address" : "45 Congress St, Ste 121, Salem",
    "categories" : [
      "school"
    ],
    "coordinate" : {
      "latitude" : 42.5177935,
      "longitude" : -70.8874905
    },
    "name" : "Salem Academy Charter School",
    "phoneNumber" : "+1 (978) 744-2105",
    "website" : "https:\/\/salemacademycs.org\/"
  },
  {
    "address" : "53 Liberty Hill Ave, Salem",
    "categories" : [
      "school"
    ],
    "coordinate" : {
      "latitude" : 42.534595,
      "longitude" : -70.905737
    },
    "name" : "Bates School",
    "phoneNumber" : "+1 (978) 740-1250",
    "website" : "https:\/\/spsbates.salemk12.org\/"
  },
  {
    "address" : "29 Highland Ave, Salem",
    "categories" : [
      "school"
    ],
    "coordinate" : {
      "latitude" : 42.5144618,
      "longitude" : -70.9051684
    },
    "name" : "Collins Middle School",
    "phoneNumber" : "+1 (978) 740-1191",
    "website" : "https:\/\/spscollins.salemk12.org"
  },
  {
    "address" : "99 RT-35, Peabody",
    "categories" : [
      "school"
    ],
    "coordinate" : {
      "latitude" : 42.5398129,
      "longitude" : -70.9176965
    },
    "name" : "Bishop Fenwick High School",
    "phoneNumber" : "+1 (978) 587-8300",
    "website" : "http:\/\/www.fenwick.org"
  },
  {
    "address" : "10 Skerry St, Salem",
    "categories" : [
      "school"
    ],
    "coordinate" : {
      "latitude" : 42.5318479,
      "longitude" : -70.8904794
    },
    "name" : "Carlton Innovation School",
    "phoneNumber" : "+1 (978) 740-1280",
    "website" : "https:\/\/spscarlton.salemk12.org\/"
  },
  {
    "address" : "25 Memorial Dr, Salem",
    "categories" : [
      "school"
    ],
    "coordinate" : {
      "latitude" : 42.5281851,
      "longitude" : -70.8811427
    },
    "name" : "Bentley Academy Charter School",
    "phoneNumber" : "+1 (978) 740-1260"
  },
  {
    "address" : "211 Lafayette St, Salem",
    "categories" : [
      "school"
    ],
    "coordinate" : {
      "latitude" : 42.5135297,
      "longitude" : -70.8916136
    },
    "name" : "Saltonstall School",
    "phoneNumber" : "+1 (978) 740-1297",
    "website" : "https:\/\/spssaltonstall.salemk12.org"
  },
  {
    "address" : "50 Swampscott Ave, Peabody",
    "categories" : [
      "school"
    ],
    "coordinate" : {
      "latitude" : 42.517849,
      "longitude" : -70.930462
    },
    "name" : "William A. Welch Elementary School",
    "phoneNumber" : "+1 (978) 536-5775",
    "website" : "https:\/\/peabody.k12.ma.us\/schools\/welch-elementary\/"
  },
  {
    "address" : "253 Essex St, Salem",
    "categories" : [
      "clothingStore",
      "coffeeLocals"
    ],
    "coordinate" : {
      "latitude" : 42.521336656058935,
      "longitude" : -70.8964942582877
    },
    "name" : "Blackcraft",
    "phoneNumber" : "+1 (978) 943-6066",
    "website" : "https:\/\/www.blackcraftcult.com"
  },
  {
    "address" : "9 Church St, Salem",
    "categories" : [
      "clothingStore"
    ],
    "coordinate" : {
      "latitude" : 42.522531131048936,
      "longitude" : -70.89382626720815
    },
    "name" : "Die With Your Boots On",
    "phoneNumber" : "+1 (978) 224-2706",
    "website" : "https:\/\/diewithyourbootson.shop"
  },
  {
    "address" : "72 Washington St, Salem",
    "categories" : [
      "shop"
    ],
    "coordinate" : {
      "latitude" : 42.5221276,
      "longitude" : -70.8959417
    },
    "name" : "Re-find Store",
    "phoneNumber" : "+1 (978) 219-9501",
    "website" : "http:\/\/www.refindstore.com"
  },
  {
    "address" : "196 Essex St, Salem",
    "categories" : [
      "shop"
    ],
    "coordinate" : {
      "latitude" : 42.5220359,
      "longitude" : -70.8942928
    },
    "name" : "Flying Monkey",
    "phoneNumber" : "+1 (978) 745-7755",
    "website" : "http:\/\/flyingmonkey.store"
  },
  {
    "address" : "11 Dodge Street Ct, Salem",
    "categories" : [
      "shop"
    ],
    "coordinate" : {
      "latitude" : 42.5182387,
      "longitude" : -70.8940305
    },
    "name" : "The Salem Flea Marketplace",
    "phoneNumber" : "+1 (508) 517-7946",
    "website" : "https:\/\/www.thesalemflea.com"
  },
  {
    "address" : "173 Essex St, Salem",
    "categories" : [
      "shop"
    ],
    "coordinate" : {
      "latitude" : 42.522271,
      "longitude" : -70.893229
    },
    "name" : "Witch Tee's",
    "phoneNumber" : "+1 (978) 740-9500",
    "website" : "https:\/\/www.facebook.com\/witchtees\/?ref=page_internal"
  },
  {
    "address" : "3 Central St, Salem",
    "categories" : [
      "clothingStore"
    ],
    "coordinate" : {
      "latitude" : 42.521497645693586,
      "longitude" : -70.89364524318903
    },
    "name" : "Modern Millie",
    "phoneNumber" : "+1 (978) 745-0231",
    "website" : "http:\/\/modernmillieshop.com"
  },
  {
    "address" : "63 Wharf St, Salem",
    "categories" : [
      "shop"
    ],
    "coordinate" : {
      "latitude" : 42.5198589,
      "longitude" : -70.8884313
    },
    "name" : "Coven",
    "phoneNumber" : "+1 (978) 594-1166",
    "website" : "http:\/\/www.covendarkboutique.com"
  },
  {
    "address" : "6 Front St, Salem",
    "categories" : [
      "clothingStore"
    ],
    "coordinate" : {
      "latitude" : 42.5206847,
      "longitude" : -70.8939048
    },
    "name" : "The Boutique",
    "phoneNumber" : "+1 (978) 741-4141",
    "website" : "https:\/\/www.theboutiquesalem-ma.com"
  },
  {
    "address" : "55 Lafayette St, Salem",
    "categories" : [
      "shop"
    ],
    "coordinate" : {
      "latitude" : 42.5198112,
      "longitude" : -70.8932597
    },
    "name" : "Mark Your Spot",
    "phoneNumber" : "+1 (978) 744-3976",
    "website" : "https:\/\/www.markyourspotsalem.com"
  },
  {
    "address" : "17 Front St, Salem",
    "categories" : [
      "shop"
    ],
    "coordinate" : {
      "latitude" : 42.5204717,
      "longitude" : -70.8942797
    },
    "name" : "J Mode",
    "phoneNumber" : "+1 (978) 744-7007",
    "website" : "http:\/\/www.jmodefashions.com\/"
  },
  {
    "address" : "281 Essex St, Unit C3, Salem",
    "categories" : [
      "shop"
    ],
    "coordinate" : {
      "latitude" : 42.5212478,
      "longitude" : -70.8974816
    },
    "name" : "WytchWood",
    "phoneNumber" : "+1 (802) 261-5551",
    "website" : "http:\/\/wytchwood.com"
  },
  {
    "address" : "24 New Derby St, Salem",
    "categories" : [
      "shop"
    ],
    "coordinate" : {
      "latitude" : 42.519897511740794,
      "longitude" : -70.89446856041727
    },
    "name" : "Shindig",
    "phoneNumber" : "+1 (508) 577-9275"
  },
  {
    "address" : "77 Wharf St, Salem",
    "categories" : [
      "clothingStore"
    ],
    "coordinate" : {
      "latitude" : 42.52026617608282,
      "longitude" : -70.88834489218843
    },
    "name" : "The Ossuary of Salem",
    "phoneNumber" : "+1 (978) 224-2706",
    "website" : "https:\/\/theossuarysalem.com"
  },
  {
    "address" : "138 Canal St, Salem",
    "categories" : [
      "shop"
    ],
    "coordinate" : {
      "latitude" : 42.5090719,
      "longitude" : -70.8964478
    },
    "name" : "Family Dollar",
    "phoneNumber" : "+1 (978) 219-2470",
    "website" : "http:\/\/www.familydollar.com"
  },
  {
    "address" : "10 Front St, Salem",
    "categories" : [
      "shop"
    ],
    "coordinate" : {
      "latitude" : 42.5206641,
      "longitude" : -70.894035
    },
    "name" : "Curtsy",
    "phoneNumber" : "+1 (978) 594-8672",
    "website" : "http:\/\/www.shopcurtsy.com"
  },
  {
    "address" : "276 Cabot St, Beverly",
    "categories" : [
      "shop"
    ],
    "coordinate" : {
      "latitude" : 42.5505862,
      "longitude" : -70.878194
    },
    "name" : "Worthy Girl",
    "phoneNumber" : "+1 (978) 969-2761",
    "website" : "http:\/\/www.worthygirlshop.com"
  },
  {
    "address" : "231 Cabot St, Beverly",
    "categories" : [
      "clothingStore"
    ],
    "coordinate" : {
      "latitude" : 42.5491925,
      "longitude" : -70.8778664
    },
    "name" : "The Golden Hanger",
    "phoneNumber" : "+1 (978) 922-5777",
    "website" : "http:\/\/www.thegoldenhanger.net\/"
  },
  {
    "address" : "41 Mason St, Salem",
    "categories" : [
      "shop"
    ],
    "coordinate" : {
      "latitude" : 42.524214,
      "longitude" : -70.9039901
    },
    "name" : "The Felt Fanatic",
    "website" : "http:\/\/www.thefeltfanatic.com"
  },
  {
    "address" : "32 Derby Square, Salem",
    "categories" : [
      "theater"
    ],
    "coordinate" : {
      "latitude" : 42.52110708776853,
      "longitude" : -70.89460784106144
    },
    "name" : "History Alive! Cry Innocent",
    "phoneNumber" : "+1 (978) 867-4767",
    "website" : "http:\/\/cryinnocentsalem.com"
  },
  {
    "address" : "286 Cabot St, Beverly",
    "categories" : [
      "theater"
    ],
    "coordinate" : {
      "latitude" : 42.551399,
      "longitude" : -70.878883
    },
    "name" : "The Cabot",
    "phoneNumber" : "+1 (978) 927-3100",
    "website" : "http:\/\/thecabot.org\/"
  },
  {
    "address" : "13 Wallis St, Beverly",
    "categories" : [
      "theater"
    ],
    "coordinate" : {
      "latitude" : 42.5481862,
      "longitude" : -70.879701
    },
    "name" : "Larcom Theatre",
    "phoneNumber" : "+1 (978) 922-6313",
    "website" : "http:\/\/www.thelarcom.org"
  },
  {
    "address" : "7 Lynde St, Salem",
    "categories" : [
      "theater"
    ],
    "coordinate" : {
      "latitude" : 42.5220975,
      "longitude" : -70.8964938
    },
    "name" : "The Witch's Cottage",
    "phoneNumber" : "+1 (978) 825-0222"
  },
  {
    "address" : "22 Foster St, Peabody",
    "categories" : [
      "theater"
    ],
    "coordinate" : {
      "latitude" : 42.5248746,
      "longitude" : -70.9276646
    },
    "name" : "Peabody’s Black Box Theater",
    "phoneNumber" : "+1 (978) 548-5854",
    "website" : "https:\/\/ne-arc.org\/black-box-events"
  },
  {
    "address" : "352 Lafayette St, Salem",
    "categories" : [
      "university"
    ],
    "coordinate" : {
      "latitude" : 42.5030989,
      "longitude" : -70.890339
    },
    "name" : "Salem State University",
    "phoneNumber" : "+1 (978) 542-6200",
    "website" : "http:\/\/www.salemstate.edu"
  },
  {
    "address" : "352 Lafayette St, Salem",
    "categories" : [
      "university"
    ],
    "coordinate" : {
      "latitude" : 42.5013586,
      "longitude" : -70.8946057
    },
    "name" : "SSU Bertolon School of Business",
    "phoneNumber" : "+1 (978) 542-6640",
    "website" : "http:\/\/www.salemstate.edu"
  },
  {
    "address" : "287 Lafayette St, Salem",
    "categories" : [
      "university"
    ],
    "coordinate" : {
      "latitude" : 42.508033,
      "longitude" : -70.890769
    },
    "name" : "SSU School of Social Work",
    "phoneNumber" : "+1 (978) 542-6650",
    "website" : "https:\/\/www.salemstate.edu\/academics\/maguire-meservey-college-health-and-human-services\/school-social-work"
  },
  {
    "address" : "186-3 Essex St, Salem",
    "categories" : [
      "tattooParlor"
    ],
    "coordinate" : {
      "latitude" : 42.5224312,
      "longitude" : -70.8933806
    },
    "name" : "Witch City Ink",
    "phoneNumber" : "+1 (978) 744-9393",
    "website" : "http:\/\/www.witchcityink.com"
  },
  {
    "address" : "266 Essex St, Salem",
    "categories" : [
      "tattooParlor"
    ],
    "coordinate" : {
      "latitude" : 42.5215294,
      "longitude" : -70.8971412
    },
    "name" : "Merk Ink tattoo studio",
    "phoneNumber" : "+1 (978) 594-4393",
    "website" : "https:\/\/www.facebook.com\/MerkInkTattoo\/"
  },
  {
    "address" : "96 Washington St, Salem",
    "categories" : [
      "barber"
    ],
    "coordinate" : {
      "latitude" : 42.5218738,
      "longitude" : -70.895884
    },
    "name" : "Badabing Barbershop and Shave Parlor",
    "phoneNumber" : "+1 (978) 594-5948",
    "website" : "https:\/\/www.facebook.com\/BadabingBarbershop978\/"
  },
  {
    "address" : "302B Essex Street, Salem",
    "categories" : [
      "hairSalon"
    ],
    "coordinate" : {
      "latitude" : 42.521531,
      "longitude" : -70.8984129
    },
    "name" : "Moon Baby Hair Salon",
    "phoneNumber" : "+1 (978) 594-4858",
    "website" : "https:\/\/moonbabysalem.mysalononline.com"
  },
  {
    "address" : "20 New Derby St, Salem",
    "categories" : [
      "barber"
    ],
    "coordinate" : {
      "latitude" : 42.51963,
      "longitude" : -70.89395
    },
    "name" : "Clean Cut Studio Barbershop",
    "phoneNumber" : "+1 (781) 771-1048",
    "website" : "http:\/\/cleancutstudio.booksy.com"
  },
  {
    "address" : "17 Canal St, Ste C, Salem",
    "categories" : [
      "shop"
    ],
    "coordinate" : {
      "latitude" : 42.5173768,
      "longitude" : -70.895268
    },
    "name" : "Thistle Piercing & Fine Jewelry",
    "phoneNumber" : "+1 (978) 740-4619",
    "website" : "https:\/\/www.thistlepiercing.com"
  },
  {
    "address" : "13 Gedney St, Salem",
    "categories" : [
      "tattooParlor"
    ],
    "coordinate" : {
      "latitude" : 42.5191823,
      "longitude" : -70.8971426
    },
    "name" : "Studio 13 Tattoo",
    "phoneNumber" : "+1 (978) 498-4252",
    "website" : "http:\/\/mikechristietattoo.com"
  },
  {
    "address" : "201 Derby St, Salem",
    "categories" : [
      "tattooParlor"
    ],
    "coordinate" : {
      "latitude" : 42.5207147,
      "longitude" : -70.8885027
    },
    "name" : "Salem Ink",
    "phoneNumber" : "+1 (978) 744-5486",
    "website" : "http:\/\/www.saleminkma.com"
  },
  {
    "address" : "172 Lafayette St, Salem",
    "categories" : [
      "nailSalon"
    ],
    "coordinate" : {
      "latitude" : 42.5153624,
      "longitude" : -70.8930373
    },
    "name" : "JIA The Nails Place",
    "phoneNumber" : "+1 (978) 745-5421",
    "website" : "https:\/\/www.facebook.com\/JIATheNailsPlace"
  },
  {
    "address" : "73 Harbor St, Salem",
    "categories" : [
      "tattooParlor"
    ],
    "coordinate" : {
      "latitude" : 42.5177587,
      "longitude" : -70.8896969
    },
    "name" : "Inkperial Tattoo",
    "phoneNumber" : "+1 (978) 594-4580"
  },
  {
    "address" : "2 Derby Square, Ste 120, Salem",
    "categories" : [
      "nailSalon"
    ],
    "coordinate" : {
      "latitude" : 42.521327,
      "longitude" : -70.89485
    },
    "name" : "Golden Nails",
    "phoneNumber" : "+1 (978) 745-8348",
    "website" : "http:\/\/goldennails.net"
  },
  {
    "address" : "282 Washington St, Salem",
    "categories" : [
      "barber"
    ],
    "coordinate" : {
      "latitude" : 42.5169368,
      "longitude" : -70.8934834
    },
    "name" : "Royal Blendz",
    "phoneNumber" : "+1 (978) 594-4923"
  },
  {
    "address" : "110 Lafayette St, Salem",
    "categories" : [
      "nailSalon"
    ],
    "coordinate" : {
      "latitude" : 42.5179781,
      "longitude" : -70.8932763
    },
    "name" : "Boston Nails",
    "phoneNumber" : "+1 (978) 914-8084"
  },
  {
    "address" : "137 Boston St, Salem",
    "categories" : [
      "tattooParlor"
    ],
    "coordinate" : {
      "latitude" : 42.5215384,
      "longitude" : -70.9147665
    },
    "name" : "Black Veil",
    "phoneNumber" : "+1 (978) 969-0741",
    "website" : "https:\/\/www.blackveilstudio.com"
  },
  {
    "address" : "248 Essex St, Salem",
    "categories" : [
      "barber"
    ],
    "coordinate" : {
      "latitude" : 42.5215253,
      "longitude" : -70.8963503
    },
    "name" : "Simard Barber Stylist",
    "phoneNumber" : "+1 (978) 744-9815",
    "website" : "http:\/\/worcestermma.com"
  },
  {
    "address" : "260 Washington St, Salem",
    "categories" : [
      "hairSalon"
    ],
    "coordinate" : {
      "latitude" : 42.5176968,
      "longitude" : -70.8942765
    },
    "name" : "Xiomaras Salon",
    "phoneNumber" : "+1 (978) 744-4523",
    "website" : "https:\/\/xiomaras-salon.hub.biz"
  },
  {
    "address" : "1 Derby Square, Salem",
    "categories" : [
      "tattooParlor"
    ],
    "coordinate" : {
      "latitude" : 42.52134095010291,
      "longitude" : -70.89452614501086
    },
    "name" : "Acorn Tattoo",
    "phoneNumber" : "+1 (978) 594-0642",
    "website" : "https:\/\/www.instagram.com\/acorntattoosalem\/"
  },
  {
    "address" : "80 Wharf St, Salem",
    "categories" : [
      "nailSalon"
    ],
    "coordinate" : {
      "latitude" : 42.5196219,
      "longitude" : -70.8883702
    },
    "name" : "Today Nails & Spa",
    "phoneNumber" : "+1 (978) 740-8888",
    "website" : "http:\/\/orchid-nail-spa.hub.biz"
  },
  {
    "address" : "274 Essex St, Salem",
    "categories" : [
      "tattooParlor"
    ],
    "coordinate" : {
      "latitude" : 42.5215332,
      "longitude" : -70.8974181
    },
    "name" : "Tomb Gallery & Tattoo",
    "phoneNumber" : "+1 (978) 594-5003",
    "website" : "https:\/\/www.facebook.com\/tombgallery"
  },
  {
    "address" : "33 New Derby St, Salem",
    "categories" : [
      "nailSalon"
    ],
    "coordinate" : {
      "latitude" : 42.519476,
      "longitude" : -70.894741
    },
    "name" : "10 Perfect Nails",
    "phoneNumber" : "+1 (978) 740-0233",
    "website" : "https:\/\/locality.com\/place\/10-perfect-nails-salem-ma"
  },
  {
    "address" : "94 Boston St, Salem",
    "categories" : [
      "tattooParlor"
    ],
    "coordinate" : {
      "latitude" : 42.5204097,
      "longitude" : -70.9113465
    },
    "name" : "Sacred Harp Tattoo",
    "phoneNumber" : "+1 (978) 745-8282",
    "website" : "https:\/\/www.facebook.com\/sacredharptattoo"
  },
  {
    "address" : "158 North St, Salem",
    "categories" : [
      "barber"
    ],
    "coordinate" : {
      "latitude" : 42.5290156,
      "longitude" : -70.903882
    },
    "name" : "My Barber Shop",
    "phoneNumber" : "+1 (978) 594-1732",
    "website" : "https:\/\/www.mybarbershoponlinestore.com"
  },
  {
    "address" : "69 Washington St, Peabody",
    "categories" : [
      "barber"
    ],
    "coordinate" : {
      "latitude" : 42.5212958,
      "longitude" : -70.9265665
    },
    "name" : "Santana's Barber shop",
    "phoneNumber" : "+1 (978) 717-5872",
    "website" : "http:\/\/santanas-barbershop.com"
  },
  {
    "address" : "125 Canal St, Salem",
    "categories" : [
      "nailSalon"
    ],
    "coordinate" : {
      "latitude" : 42.5096228,
      "longitude" : -70.8950479
    },
    "name" : "Mindy's Nails",
    "phoneNumber" : "+1 (978) 741-7885",
    "website" : "http:\/\/calinails.com"
  },
  {
    "address" : "135 Canal St, Salem",
    "categories" : [
      "nailSalon"
    ],
    "coordinate" : {
      "latitude" : 42.5088582,
      "longitude" : -70.8958437
    },
    "name" : "Seasons Nails & Spa",
    "phoneNumber" : "+1 (978) 910-0466",
    "website" : "https:\/\/seasonsnailsspa.com"
  },
  {
    "address" : "83 Hale St, Beverly",
    "categories" : [
      "nailSalon"
    ],
    "coordinate" : {
      "latitude" : 42.5499487,
      "longitude" : -70.8691499
    },
    "name" : "Colorful Nails",
    "phoneNumber" : "+1 (978) 720-8378",
    "website" : "https:\/\/salemcolorfulnails.com"
  },
  {
    "address" : "116 Rantoul St, Unit 102, Beverly",
    "categories" : [
      "barber"
    ],
    "coordinate" : {
      "latitude" : 42.5460468,
      "longitude" : -70.8847449
    },
    "name" : "Beard & Mane",
    "phoneNumber" : "+1 (978) 922-0322",
    "website" : "http:\/\/beardandmane.salontarget.com"
  },
  {
    "address" : "324 Rantoul St, Beverly",
    "categories" : [
      "barber"
    ],
    "coordinate" : {
      "latitude" : 42.5517281,
      "longitude" : -70.8833181
    },
    "name" : "Barbers Edge",
    "phoneNumber" : "+1 (978) 720-8194",
    "website" : "https:\/\/www.thebarbersedge.com"
  },
  {
    "address" : "125 Cabot St, Beverly",
    "categories" : [
      "barber"
    ],
    "coordinate" : {
      "latitude" : 42.546138,
      "longitude" : -70.8797916
    },
    "name" : "Jack's Barber Shack",
    "phoneNumber" : "+1 (978) 559-1904",
    "website" : "https:\/\/jacksbarbershack.com"
  },
  {
    "address" : "160 Cabot St, Beverly",
    "categories" : [
      "hairSalon"
    ],
    "coordinate" : {
      "latitude" : 42.5470326,
      "longitude" : -70.8795731
    },
    "name" : "Franchise Elegance",
    "phoneNumber" : "+1 (978) 927-3222",
    "website" : "https:\/\/www.facebook.com\/FranchiseElegance\/"
  },
  {
    "address" : "283 Cabot St, Beverly",
    "categories" : [
      "nailSalon"
    ],
    "coordinate" : {
      "latitude" : 42.551114,
      "longitude" : -70.8782261
    },
    "name" : "Cindy's Nails",
    "phoneNumber" : "+1 (978) 922-9886",
    "website" : "https:\/\/cindys-nails-ma.hub.biz"
  },
  {
    "address" : "197 Cabot St, Beverly",
    "categories" : [
      "barber"
    ],
    "coordinate" : {
      "latitude" : 42.5479956,
      "longitude" : -70.8786743
    },
    "name" : "Mario Antonio's",
    "phoneNumber" : "+1 (978) 529-2989",
    "website" : "http:\/\/marioantonios.com"
  },
  {
    "address" : "149 Cabot St, Beverly",
    "categories" : [
      "tattooParlor"
    ],
    "coordinate" : {
      "latitude" : 42.5465617,
      "longitude" : -70.8794086
    },
    "name" : "Good Mojo Tattoos",
    "phoneNumber" : "+1 (978) 666-0931",
    "website" : "http:\/\/www.goodmojotattoos.com\/"
  },
  {
    "address" : "122 Boston St, Salem",
    "categories" : [
      "barber"
    ],
    "coordinate" : {
      "latitude" : 42.5215098,
      "longitude" : -70.9137812
    },
    "name" : "New England Barber Studio",
    "phoneNumber" : "+1 (781) 842-8044"
  },
  {
    "address" : "108 Boston St, Salem",
    "categories" : [
      "nailSalon"
    ],
    "coordinate" : {
      "latitude" : 42.520874,
      "longitude" : -70.9124687
    },
    "name" : "Colorful Nails",
    "phoneNumber" : "+1 (978) 594-4307",
    "website" : "https:\/\/salemcolorfulnails.com"
  },
  {
    "address" : "116 North St, Salem",
    "categories" : [
      "tattooParlor"
    ],
    "coordinate" : {
      "latitude" : 42.5268298,
      "longitude" : -70.9011165
    },
    "name" : "North Street Tattoo",
    "phoneNumber" : "+1 (978) 594-0120",
    "website" : "https:\/\/www.northstreetsalem.com"
  },
  {
    "address" : "401 Bridge St, Salem",
    "categories" : [
      "pointOfInterest"
    ],
    "coordinate" : {
      "latitude" : 42.5264797,
      "longitude" : -70.8664727
    },
    "name" : "Fort Pickering",
    "phoneNumber" : "+1 (978) 745-0883"
  },
  {
    "address" : "101 Ft Ave, Salem",
    "categories" : [
      "pointOfInterest"
    ],
    "coordinate" : {
      "latitude" : 42.5302345,
      "longitude" : -70.8744125
    },
    "name" : "Fort Lee",
    "phoneNumber" : "+1 (978) 741-3252",
    "website" : "http:\/\/www.historicsalem.org\/fort-lee.html"
  },
  {
    "address" : "318 Essex St, Salem",
    "categories" : [
      "historicalMarker"
    ],
    "coordinate" : {
      "latitude" : 42.5211858,
      "longitude" : -70.899743
    },
    "name" : "Ropes Mansion",
    "phoneNumber" : "+1 (978) 745-9500",
    "website" : "http:\/\/www.pem.org\/visit\/historic-houses\/mcintire-historic-district"
  },
  {
    "address" : "24 Liberty St, Salem",
    "categories" : [
      "historicalMarker"
    ],
    "coordinate" : {
      "latitude" : 42.5208181,
      "longitude" : -70.8918142
    },
    "name" : "Salem Witch Trials Memorial",
    "phoneNumber" : "+1 (978) 741-3252",
    "website" : "https:\/\/www.salem.org\/listing\/witch-trials-memorial\/"
  },
  {
    "address" : "32 Derby Square, Salem",
    "categories" : [
      "pointOfInterest"
    ],
    "coordinate" : {
      "latitude" : 42.52097328077836,
      "longitude" : -70.89460187180384
    },
    "name" : "Old Town Hall",
    "phoneNumber" : "+1 (978) 619-5681",
    "website" : "https:\/\/www.salem.org\/listing\/old-town-hall\/"
  },
  {
    "address" : "9 Brown St, Salem",
    "categories" : [
      "historicalMarker"
    ],
    "coordinate" : {
      "latitude" : 42.5229571,
      "longitude" : -70.891658
    },
    "name" : "John Ward House",
    "phoneNumber" : "+1 (978) 745-9500"
  },
  {
    "address" : "235 Essex St, Salem",
    "categories" : [
      "historicalMarker"
    ],
    "coordinate" : {
      "latitude" : 42.521331,
      "longitude" : -70.8958592
    },
    "name" : "Bewitched Statue of Elizabeth Montgomery",
    "phoneNumber" : "+1 (978) 744-9904",
    "website" : "https:\/\/www.atlasobscura.com\/places\/statue-elizabeth-montgomery-bewitched"
  },
  {
    "address" : "178 Derby St, Salem",
    "categories" : [
      "historicalMarker"
    ],
    "coordinate" : {
      "latitude" : 42.5215812,
      "longitude" : -70.8871472
    },
    "name" : "Custom House",
    "phoneNumber" : "+1 (978) 740-1650"
  },
  {
    "address" : "7 Pope St, Salem",
    "categories" : [
      "historicalMarker"
    ],
    "coordinate" : {
      "latitude" : 42.5176105,
      "longitude" : -70.9090897
    },
    "name" : "Proctor's Ledge Memorial",
    "website" : "https:\/\/salemwitchmuseum.com\/locations\/proctors-ledge-memorial\/"
  },
  {
    "address" : "2 Brown St, Salem",
    "categories" : [
      "historicalMarker"
    ],
    "coordinate" : {
      "latitude" : 42.5234355,
      "longitude" : -70.8908486
    },
    "name" : "Roger Conant Statue",
    "phoneNumber" : "+1 (978) 741-3252",
    "website" : "https:\/\/www.salem.org\/notable-locals\/roger-conant"
  },
  {
    "address" : "1 Sewall St, Salem",
    "categories" : [
      "historicalMarker"
    ],
    "coordinate" : {
      "latitude" : 42.5218454,
      "longitude" : -70.8977594
    },
    "name" : "Alexander Graham Bell Historical Marker"
  },
  {
    "address" : "160 Derby St, Salem",
    "categories" : [
      "pointOfInterest"
    ],
    "coordinate" : {
      "latitude" : 42.5218501,
      "longitude" : -70.8862835
    },
    "name" : "Salem Maritime National Historic Site",
    "phoneNumber" : "+1 (978) 740-1650",
    "website" : "https:\/\/www.nps.gov\/sama\/"
  },
  {
    "address" : "20 Hawthorne Blvd, Salem",
    "categories" : [
      "historicalMarker"
    ],
    "coordinate" : {
      "latitude" : 42.521966542625314,
      "longitude" : -70.89025955318736
    },
    "name" : "Nathaniel Hawthorne Statue"
  },
  {
    "address" : "35 Daniels St, Salem",
    "categories" : [
      "pointOfInterest"
    ],
    "coordinate" : {
      "latitude" : 42.5213993,
      "longitude" : -70.8852375
    },
    "name" : "Derby Waterfront District"
  },
  {
    "address" : "348 Essex St, Salem",
    "categories" : [
      "pointOfInterest"
    ],
    "coordinate" : {
      "latitude" : 42.5207986,
      "longitude" : -70.9013365
    },
    "name" : "McIntire Historic District"
  },
  {
    "address" : "128 Essex St, Salem",
    "categories" : [
      "historicalMarker"
    ],
    "coordinate" : {
      "latitude" : 42.5225337,
      "longitude" : -70.8910022
    },
    "name" : "Gardner-Pingree House",
    "phoneNumber" : "+1 (978) 745-9500"
  },
  {
    "address" : "73 Commercial St, Salem",
    "categories" : [
      "historicalMarker"
    ],
    "coordinate" : {
      "latitude" : 42.5247593,
      "longitude" : -70.8996945
    },
    "name" : "Leslie's Retreat Monument",
    "phoneNumber" : "+1 (978) 745-0883"
  },
  {
    "address" : "1 Kosciusko St, Salem",
    "categories" : [
      "pointOfInterest"
    ],
    "coordinate" : {
      "latitude" : 42.5208754,
      "longitude" : -70.8871017
    },
    "name" : "Hatch's Wharf"
  },
  {
    "address" : "22 Kosciusko St, Salem",
    "categories" : [
      "pointOfInterest"
    ],
    "coordinate" : {
      "latitude" : 42.5207272,
      "longitude" : -70.8857165
    },
    "name" : "Tucker's Wharf"
  },
  {
    "address" : "216 Essex St, Salem",
    "categories" : [
      "mailbox"
    ],
    "coordinate" : {
      "latitude" : 42.521562,
      "longitude" : -70.8949029
    },
    "name" : "USPS Collection Box",
    "website" : "https:\/\/www.usps.com"
  },
  {
    "address" : "256 Essex St, Salem",
    "categories" : [
      "mailbox"
    ],
    "coordinate" : {
      "latitude" : 42.521495,
      "longitude" : -70.8966139
    },
    "name" : "USPS Collection Box",
    "website" : "https:\/\/www.usps.com"
  },
  {
    "address" : "185 Essex St, Salem",
    "categories" : [
      "mailbox"
    ],
    "coordinate" : {
      "latitude" : 42.521675,
      "longitude" : -70.8936679
    },
    "name" : "USPS Collection Box",
    "website" : "https:\/\/www.usps.com"
  },
  {
    "address" : "215 Derby St, Salem",
    "categories" : [
      "mailbox"
    ],
    "coordinate" : {
      "latitude" : 42.52004,
      "longitude" : -70.888688
    },
    "name" : "USPS Collection Box",
    "website" : "https:\/\/www.usps.com"
  },
  {
    "address" : "126 Essex St, Salem",
    "categories" : [
      "mailbox"
    ],
    "coordinate" : {
      "latitude" : 42.522532,
      "longitude" : -70.8906329
    },
    "name" : "USPS Collection Box",
    "website" : "https:\/\/www.usps.com"
  },
  {
    "address" : "212 Washington St, Salem",
    "categories" : [
      "mailbox"
    ],
    "coordinate" : {
      "latitude" : 42.518806,
      "longitude" : -70.8961129
    },
    "name" : "USPS Collection Box",
    "website" : "https:\/\/www.usps.com"
  },
  {
    "address" : "135 Lafayette St, Salem",
    "categories" : [
      "mailbox"
    ],
    "coordinate" : {
      "latitude" : 42.517472,
      "longitude" : -70.8929359
    },
    "name" : "USPS Collection Box",
    "website" : "https:\/\/www.usps.com"
  },
  {
    "address" : "107 Federal St, Salem",
    "categories" : [
      "mailbox"
    ],
    "coordinate" : {
      "latitude" : 42.521769,
      "longitude" : -70.9013629
    },
    "name" : "USPS Collection Box",
    "website" : "https:\/\/www.usps.com"
  },
  {
    "address" : "189 Jefferson Ave, Salem",
    "categories" : [
      "mailbox"
    ],
    "coordinate" : {
      "latitude" : 42.509477,
      "longitude" : -70.9012229
    },
    "name" : "USPS Collection Box",
    "website" : "https:\/\/www.usps.com"
  },
  {
    "address" : "72 Loring Ave, Salem",
    "categories" : [
      "mailbox"
    ],
    "coordinate" : {
      "latitude" : 42.500394,
      "longitude" : -70.8965529
    },
    "name" : "USPS Collection Box",
    "website" : "https:\/\/www.usps.com"
  },
  {
    "address" : "380 Lafayette St, Salem",
    "categories" : [
      "mailbox"
    ],
    "coordinate" : {
      "latitude" : 42.503369,
      "longitude" : -70.8896529
    },
    "name" : "USPS Collection Box",
    "website" : "https:\/\/www.usps.com"
  },
  {
    "address" : "24 Lowell St, Peabody",
    "categories" : [
      "mailbox"
    ],
    "coordinate" : {
      "latitude" : 42.526143,
      "longitude" : -70.9284079
    },
    "name" : "USPS Collection Box",
    "website" : "https:\/\/www.usps.com"
  },
  {
    "address" : "24 New Derby St, Unit 1, Salem",
    "categories" : [
      "venue"
    ],
    "coordinate" : {
      "latitude" : 42.5199761,
      "longitude" : -70.8946357
    },
    "name" : "Moon Base One",
    "website" : "https:\/\/www.moon-ns.org"
  },
  {
    "address" : "290 Essex St, Salem",
    "categories" : [
      "venue"
    ],
    "coordinate" : {
      "latitude" : 42.5216801,
      "longitude" : -70.8977741
    },
    "name" : "Ames Memorial Hall",
    "phoneNumber" : "+1 (978) 740-9622",
    "website" : "http:\/\/www.northshoreymca.org"
  },
  {
    "address" : "53 Hanson St, Salem",
    "categories" : [
      "park"
    ],
    "coordinate" : {
      "latitude" : 42.5165045,
      "longitude" : -70.9112495
    },
    "name" : "Ryan Brennan Memorial Skate Park"
  },
  {
    "address" : "47 Ocean Ave, Salem",
    "categories" : [
      "spa"
    ],
    "coordinate" : {
      "latitude" : 42.5081677,
      "longitude" : -70.8916568
    },
    "name" : "Andrew Michaels Salon and Spa",
    "phoneNumber" : "+1 (978) 741-4900",
    "website" : "https:\/\/www.facebook.com\/AndrewMichaelsSalonandSpa\/?ref=page_internal"
  },
  {
    "address" : "204 Rantoul St, Beverly",
    "categories" : [
      "spa"
    ],
    "coordinate" : {
      "latitude" : 42.5483882,
      "longitude" : -70.8842081
    },
    "name" : "Beverly Day Spa",
    "phoneNumber" : "+1 (978) 969-6885",
    "website" : "https:\/\/www.facebook.com\/beverlydayspa"
  },
  {
    "address" : "67 Foster St, Peabody",
    "categories" : [
      "spa"
    ],
    "coordinate" : {
      "latitude" : 42.5236789,
      "longitude" : -70.9301444
    },
    "name" : "Sun Factory",
    "phoneNumber" : "+1 (978) 531-7869",
    "website" : "http:\/\/sunfactorypeabody.net"
  },
  {
    "address" : "331 Lafayette St, Salem",
    "categories" : [
      "spa"
    ],
    "coordinate" : {
      "latitude" : 42.5054793,
      "longitude" : -70.8906111
    },
    "name" : "RN Esthetics Salem",
    "phoneNumber" : "+1 (978) 615-9336"
  },
  {
    "address" : "131 Boston St, Salem",
    "categories" : [
      "spa"
    ],
    "coordinate" : {
      "latitude" : 42.5211655,
      "longitude" : -70.914502
    },
    "name" : "Rasha's Beauty Skin & Laser",
    "phoneNumber" : "+1 (617) 909-9100",
    "website" : "https:\/\/www.rashasbeautyskinandlaser.com\/"
  },
  {
    "address" : "50 Grove St, Salem",
    "categories" : [
      "spa"
    ],
    "coordinate" : {
      "latitude" : 42.522354132041336,
      "longitude" : -70.91115718510349
    },
    "name" : "EB Skin Studio",
    "phoneNumber" : "+1 (978) 333-2300",
    "website" : "http:\/\/www.eb-skinstudio.com"
  },
  {
    "address" : "10 Colonial Rd, Salem",
    "categories" : [
      "spa"
    ],
    "coordinate" : {
      "latitude" : 42.5094639,
      "longitude" : -70.9005788
    },
    "name" : "Cerave Spa",
    "phoneNumber" : "+1 (781) 469-3505"
  },
  {
    "address" : "24 Main St, Ste 28, Peabody",
    "categories" : [
      "spa"
    ],
    "coordinate" : {
      "latitude" : 42.5255971,
      "longitude" : -70.9261448
    },
    "name" : "Brazilian Beauty Spa",
    "phoneNumber" : "+1 (978) 705-8146",
    "website" : "https:\/\/www.yelp.com\/biz\/brazilian-beauty-spa-peabody"
  },
  {
    "address" : "30 Main St, Peabody",
    "categories" : [
      "spa"
    ],
    "coordinate" : {
      "latitude" : 42.5254765,
      "longitude" : -70.926112
    },
    "name" : "China Massage & Reflexology Spa",
    "phoneNumber" : "+1 (781) 888-1068",
    "website" : "http:\/\/spaexcel.com"
  },
  {
    "address" : "116 Boston St, Salem",
    "categories" : [
      "spa"
    ],
    "coordinate" : {
      "latitude" : 42.5212814,
      "longitude" : -70.9130827
    },
    "name" : "Jian Kang Spa",
    "phoneNumber" : "+1 (857) 415-8790"
  },
  {
    "address" : "244 Essex St, Salem",
    "categories" : [
      "shop"
    ],
    "coordinate" : {
      "latitude" : 42.5215244,
      "longitude" : -70.8962104
    },
    "name" : "Vampfangs",
    "phoneNumber" : "+1 (978) 594-0973",
    "website" : "https:\/\/vampfangs.com"
  },
  {
    "address" : "213 Essex St, Salem",
    "categories" : [
      "shop"
    ],
    "coordinate" : {
      "latitude" : 42.52148115924964,
      "longitude" : -70.89448924130744
    },
    "name" : "Magic Parlor",
    "phoneNumber" : "+1 (978) 740-3866",
    "website" : "http:\/\/www.magicparlor.com\/"
  },
  {
    "address" : "227 Highland Ave, Salem",
    "categories" : [
      "clothingStore"
    ],
    "coordinate" : {
      "latitude" : 42.50368087475645,
      "longitude" : -70.9193400427951
    },
    "name" : "Spirit Halloween",
    "phoneNumber" : "+1 (855) 704-2669",
    "website" : "https:\/\/stores.spirithalloween.com\/ma\/salem\/halloween-store-60341.html"
  },
  {
    "address" : "6 Central St, Salem",
    "categories" : [
      "shop"
    ],
    "coordinate" : {
      "latitude" : 42.52138244313805,
      "longitude" : -70.89379712655375
    },
    "name" : "Emporium 32",
    "website" : "http:\/\/www.emporium32.com"
  },
  {
    "address" : "186 Essex St, Salem",
    "categories" : [
      "shop"
    ],
    "coordinate" : {
      "latitude" : 42.5218254,
      "longitude" : -70.8936818
    },
    "name" : "Village Silversmith",
    "phoneNumber" : "+1 (978) 594-1347",
    "website" : "https:\/\/www.villagesilversmith.net\/salem"
  },
  {
    "address" : "191 Essex St, Salem",
    "categories" : [
      "souvenierShop"
    ],
    "coordinate" : {
      "latitude" : 42.52156195591377,
      "longitude" : -70.89394297874989
    },
    "name" : "The Trolley Depot",
    "phoneNumber" : "+1 (800) 821-8179",
    "website" : "https:\/\/www.trolleydepot.com"
  },
  {
    "address" : "180 Essex St, Salem",
    "categories" : [
      "shop"
    ],
    "coordinate" : {
      "latitude" : 42.5218651,
      "longitude" : -70.8934025
    },
    "name" : "Bewitched In Salem",
    "phoneNumber" : "+1 (978) 744-9904",
    "website" : "http:\/\/www.bewitchedafterdark.com\/"
  },
  {
    "address" : "30 Church St, Salem",
    "categories" : [
      "shop"
    ],
    "coordinate" : {
      "latitude" : 42.5226368,
      "longitude" : -70.8951119
    },
    "name" : "Hive & Forge",
    "phoneNumber" : "+1 (978) 726-7749",
    "website" : "https:\/\/www.hiveandforge.com"
  },
  {
    "address" : "230 Essex St, Salem",
    "categories" : [
      "shop"
    ],
    "coordinate" : {
      "latitude" : 42.5215816,
      "longitude" : -70.8954798
    },
    "name" : "Tibet Arts & Healing",
    "phoneNumber" : "+1 (978) 594-6559",
    "website" : "http:\/\/www.tibetartsandhealing.com"
  },
  {
    "address" : "24 Front St, Salem",
    "categories" : [
      "shop"
    ],
    "coordinate" : {
      "latitude" : 42.520622859805165,
      "longitude" : -70.89440964110499
    },
    "name" : "Jenni Stuart Fine Jewelry",
    "phoneNumber" : "+1 (978) 414-5798",
    "website" : "https:\/\/jennistuart.com"
  },
  {
    "address" : "63A Wharf St, Salem",
    "categories" : [
      "shop"
    ],
    "coordinate" : {
      "latitude" : 42.5198222,
      "longitude" : -70.8882244
    },
    "name" : "The Finery Shop",
    "phoneNumber" : "+1 (978) 224-2273",
    "website" : "https:\/\/www.facebook.com\/tfsofsalem\/"
  },
  {
    "address" : "142 Washington St, Salem",
    "categories" : [
      "shop"
    ],
    "coordinate" : {
      "latitude" : 42.5206123,
      "longitude" : -70.8956882
    },
    "name" : "Tobie's Jewelry",
    "phoneNumber" : "+1 (978) 745-7880"
  },
  {
    "address" : "63 Wharf St, Salem",
    "categories" : [
      "shop"
    ],
    "coordinate" : {
      "latitude" : 42.520232,
      "longitude" : -70.888357
    },
    "name" : "Rad Jewelers",
    "phoneNumber" : "+1 (978) 594-4609",
    "website" : "http:\/\/www.radjewelers.com"
  },
  {
    "address" : "231 Essex St, Salem",
    "categories" : [
      "shop"
    ],
    "coordinate" : {
      "latitude" : 42.521296029359256,
      "longitude" : -70.89543704784472
    },
    "name" : "Daniel Low & Co."
  },
  {
    "address" : "296 Cabot St, Beverly",
    "categories" : [
      "shop"
    ],
    "coordinate" : {
      "latitude" : 42.5519538,
      "longitude" : -70.8789594
    },
    "name" : "The Rustic Mandala",
    "phoneNumber" : "+1 (978) 578-1109",
    "website" : "http:\/\/therusticmandala.com"
  },
  {
    "address" : "121 Essex St, Salem",
    "categories" : [
      "pub",
      "customerRestroom"
    ],
    "coordinate" : {
      "latitude" : 42.5223478,
      "longitude" : -70.8906892
    },
    "name" : "Olde Main Street Pub",
    "phoneNumber" : "+1 (978) 594-8188",
    "website" : "http:\/\/www.oldemainstreetpub.com"
  },
  {
    "address" : "120 Washington St, Salem",
    "categories" : [
      "pub",
      "customerRestroom"
    ],
    "coordinate" : {
      "latitude" : 42.52092519414444,
      "longitude" : -70.89575556552542
    },
    "name" : "O'Neill's",
    "phoneNumber" : "+1 (978) 740-8811",
    "website" : "http:\/\/www.oneillsofsalem.com"
  },
  {
    "address" : "148 Derby St, Salem",
    "categories" : [
      "foodRestaurant",
      "pub",
      "customerRestroom"
    ],
    "coordinate" : {
      "latitude" : 42.5220216,
      "longitude" : -70.8858303
    },
    "name" : "Mercy Tavern",
    "phoneNumber" : "+1 (978) 741-4436",
    "website" : "https:\/\/www.mercysalem.com\/pub\/"
  },
  {
    "address" : "30 Church St, Salem",
    "categories" : [
      "brewery",
      "pub",
      "customerRestroom"
    ],
    "coordinate" : {
      "latitude" : 42.52266436359391,
      "longitude" : -70.89499476482496
    },
    "name" : "East Regiment Beer Company",
    "phoneNumber" : "+1 (339) 245-2939",
    "website" : "https:\/\/eastregimentbeercompany.com"
  },
  {
    "address" : "76 Lafayette St, Salem",
    "categories" : [
      "brewery",
      "customerRestroom"
    ],
    "coordinate" : {
      "latitude" : 42.5192742,
      "longitude" : -70.8937485
    },
    "name" : "Couch Dog Brewing Co.",
    "website" : "https:\/\/www.couchdogbrewing.com\/"
  },
  {
    "address" : "225 Derby St, Salem",
    "categories" : [
      "pub",
      "customerRestroom"
    ],
    "coordinate" : {
      "latitude" : 42.5202093,
      "longitude" : -70.8893367
    },
    "name" : "Regatta Pub",
    "phoneNumber" : "+1 (978) 740-8788",
    "website" : "http:\/\/www.salemwaterfronthotel.com\/dining\/regatta-pub-restaurant\/"
  },
  {
    "address" : "20 Cabot St, Beverly",
    "categories" : [
      "foodRestaurant",
      "bar",
      "customerRestroom"
    ],
    "coordinate" : {
      "latitude" : 42.5415521,
      "longitude" : -70.8860153
    },
    "name" : "Anchor Pub & Grille",
    "phoneNumber" : "+1 (978) 921-0504",
    "website" : "http:\/\/anchorpubbeverly.com"
  },
  {
    "address" : "10 Lowell St, Peabody",
    "categories" : [
      "pub",
      "customerRestroom",
    ],
    "coordinate" : {
      "latitude" : 42.5260649,
      "longitude" : -70.9278553
    },
    "name" : "Brodie's Pub",
    "phoneNumber" : "+1 (978) 896-6251",
    "website" : "https:\/\/brodiespubpeabody.com"
  },
  {
    "address" : "2 Washington St, Peabody",
    "categories" : [
      "hotel",
      "pub"
    ],
    "coordinate" : {
      "latitude" : 42.523685,
      "longitude" : -70.92317
    },
    "name" : "The Bell Inn & Tavern",
    "phoneNumber" : "+1 (978) 587-2296",
    "website" : "https:\/\/www.bellinnpeabody.com"
  },
  {
    "address" : "156 Derby St, Salem",
    "categories" : [
      "foodRestaurant",
      "bar"
    ],
    "coordinate" : {
      "latitude" : 42.5219408,
      "longitude" : -70.8861304
    },
    "name" : "Trade House",
    "website" : "https:\/\/tradehousesalem.com"
  },
  {
    "address" : "331 Lafayette St, Salem",
    "categories" : [
      "foodRestaurant",
      "bar",
      "customerRestroom"
    ],
    "coordinate" : {
      "latitude" : 42.5055435,
      "longitude" : -70.8904395
    },
    "name" : "PZA Grille & Bar",
    "phoneNumber" : "+1 (978) 594-0490",
    "website" : "http:\/\/pzagrille.com"
  },
  {
    "address" : "241 Jefferson Ave, Salem",
    "categories" : [
      "bar",
      "foodRestaurant",
      "customerRestroom"
    ],
    "coordinate" : {
      "latitude" : 42.5066188,
      "longitude" : -70.9014152
    },
    "name" : "Tin Whistle",
    "phoneNumber" : "+1 (978) 741-1912",
    "website" : "http:\/\/www.tinwhistlesalem.com\/"
  },
  {
    "address" : "102 Cabot St, Beverly",
    "categories" : [
      "pub",
      "customerRestroom"
    ],
    "coordinate" : {
      "latitude" : 42.5455061,
      "longitude" : -70.8806438
    },
    "name" : "Fibber McGee's",
    "phoneNumber" : "+1 (978) 232-0180",
    "website" : "http:\/\/fibbersbeverly.com\/"
  },
  {
    "address" : "168 Essex St, Salem",
    "categories" : [
      "foodRestaurant",
      "bar",
      "customerRestroom"
    ],
    "coordinate" : {
      "latitude" : 42.5222375,
      "longitude" : -70.8927584
    },
    "name" : "Village Tavern",
    "phoneNumber" : "+1 (978) 744-2858",
    "website" : "https:\/\/www.villagetavernsalem.com"
  },
  {
    "address" : "278 Derby St, Salem",
    "categories" : [
      "arcade",
      "foodRestaurant",
      "bar",
      "customerRestroom"
    ],
    "coordinate" : {
      "latitude" : 42.5205689,
      "longitude" : -70.8910508
    },
    "name" : "Bit Bar Salem",
    "phoneNumber" : "+1 (978) 594-4838",
    "website" : "https:\/\/bitbarsalem.com"
  },
  {
    "address" : "282 Derby St, Salem",
    "categories" : [
      "bar",
      "customerRestroom"
    ],
    "coordinate" : {
      "latitude" : 42.5204363,
      "longitude" : -70.8911052
    },
    "name" : "All Souls Lounge",
    "phoneNumber" : "+1 (978) 306-7906",
    "website" : "https:\/\/allsoulssalem.com"
  },
  {
    "address" : "87 Washington St, Salem",
    "categories" : [
      "bar",
      "customerRestroom"
    ],
    "coordinate" : {
      "latitude" : 42.52193208625293,
      "longitude" : -70.89551372844699
    },
    "name" : "Hallowed Ground",
    "phoneNumber" : "+1 (978) 744-9600",
    "website" : "https:\/\/www.hallowedgroundsalem.com"
  },
  {
    "address" : "221 Washington St, Salem",
    "categories" : [
      "bar",
      "foodRestaurant",
      "customerRestroom"
    ],
    "coordinate" : {
      "latitude" : 42.5187765,
      "longitude" : -70.8950686
    },
    "name" : "Tipsy Cowboy Country Dive",
    "phoneNumber" : "+1 (978) 594-0075",
    "website" : "https:\/\/www.tipsysalem.com"
  },
  {
    "address" : "72 Wharf St, Salem",
    "categories" : [
      "foodRestaurant",
      "bar",
      "customerRestroom"
    ],
    "coordinate" : {
      "latitude" : 42.5197864,
      "longitude" : -70.8886249
    },
    "name" : "LongBoards",
    "phoneNumber" : "+1 (978) 745-6659",
    "website" : "https:\/\/www.longboardsbar.com"
  },
  {
    "address" : "298 Cabot St, Beverly",
    "categories" : [
      "pub"
    ],
    "coordinate" : {
      "latitude" : 42.5521814,
      "longitude" : -70.878936
    },
    "name" : "The Indo",
    "phoneNumber" : "+1 (978) 969-2008",
    "website" : "http:\/\/www.theindopub.com"
  },
  {
    "address" : "206 Cabot St, Beverly",
    "categories" : [
      "foodRestaurant"
    ],
    "coordinate" : {
      "latitude" : 42.548203,
      "longitude" : -70.879036
    },
    "name" : "A&B Burgers",
    "phoneNumber" : "+1 (978) 993-7394",
    "website" : "http:\/\/anbburgers.com"
  },
  {
    "address" : "268 Washington St, Salem",
    "categories" : [
      "bar",
      "foodRestaurant",
      "customerRestroom"
    ],
    "coordinate" : {
      "latitude" : 42.5173171,
      "longitude" : -70.894017
    },
    "name" : "The Babe",
    "phoneNumber" : "+1 (978) 219-2210",
    "website" : "https:\/\/www.thebabesalem.com\/"
  },
  {
    "address" : "109 Lafayette St, Salem",
    "categories" : [
      "shop"
    ],
    "coordinate" : {
      "latitude" : 42.5182246,
      "longitude" : -70.8930174
    },
    "name" : "Witch Dr",
    "phoneNumber" : "+1 (978) 594-0658",
    "website" : "http:\/\/www.witchdr.com"
  },
  {
    "address" : "186-1 Essex St, Salem",
    "categories" : [
      "attraction"
    ],
    "coordinate" : {
      "latitude" : 42.5218254,
      "longitude" : -70.8936818
    },
    "name" : "Witch Mansion",
    "phoneNumber" : "+1 (978) 825-1300",
    "website" : "http:\/\/www.witchmansion.com"
  },
  {
    "address" : "172 Essex St, Salem",
    "categories" : [
        "attraction"
    ],
    "coordinate" : {
      "latitude" : 42.5219206,
      "longitude" : -70.8931393
    },
    "name" : "Witch Pix",
    "phoneNumber" : "+1 (978) 745-2021",
    "website" : "https:\/\/www.witchpix.com"
  },
  {
    "address" : "302A Essex St, Salem",
    "categories" : [
      "shop"
    ],
    "coordinate" : {
      "latitude" : 42.5215375,
      "longitude" : -70.8983228
    },
    "name" : "Witch City Wicks",
    "phoneNumber" : "+1 (978) 224-2988",
    "website" : "https:\/\/www.witchcitywicks.com"
  },
  {
    "address" : "155 Derby St, Salem",
    "categories" : [
      "souvenierShop"
    ],
    "coordinate" : {
      "latitude" : 42.5217372,
      "longitude" : -70.8861023
    },
    "name" : "Witch Way Gifts",
    "phoneNumber" : "+1 (978) 740-3930",
    "website" : "http:\/\/www.witchwaygifts.com\/"
  },
  {
    "address" : "32 Derby Square, Salem",
    "categories" : [
      "attraction"
    ],
    "coordinate" : {
      "latitude" : 42.520807690194374,
      "longitude" : -70.89460324832746
    },
    "name" : "Witch City Walking Tours",
    "phoneNumber" : "+1 (781) 608-6986",
    "website" : "https:\/\/www.witchcitywalkingtours.com\/"
  },
  {
    "address" : "226 Essex St, Salem",
    "categories" : [
      "shop"
    ],
    "coordinate" : {
      "latitude" : 42.5216496,
      "longitude" : -70.8952938
    },
    "name" : "Moons Gift Shop",
    "phoneNumber" : "+1 (978) 744-5884",
    "website" : "http:\/\/moonsgiftshop.com"
  },
  {
    "address" : "221 Essex St, Salem",
    "categories" : [
      "shop"
    ],
    "coordinate" : {
      "latitude" : 42.52140137581347,
      "longitude" : -70.89502510572756
    },
    "name" : "TwilightHouse of Salem",
    "website" : "https:\/\/twilighthouseofsalem.com\/"
  },
  {
    "address" : "18 Front St, Salem",
    "categories" : [
      "clothingStore"
    ],
    "coordinate" : {
      "latitude" : 42.52064118583161,
      "longitude" : -70.89422760263152
    },
    "name" : "Nocturne",
    "website" : "https:\/\/nocturnesalem.com"
  },
  {
    "address" : "143 Washington St, Salem",
    "categories" : [
      "shop"
    ],
    "coordinate" : {
      "latitude" : 42.5205953,
      "longitude" : -70.8952965
    },
    "name" : "Oak + Moss",
    "phoneNumber" : "+1 (978) 594-1498",
    "website" : "https:\/\/oakandmoss.com"
  },
  {
    "address" : "2 North St, Salem",
    "categories" : [
      "shop"
    ],
    "coordinate" : {
      "latitude" : 42.521624,
      "longitude" : -70.898421
    },
    "name" : "The Good Witch of Salem",
    "phoneNumber" : "+1 (978) 594-4026",
    "website" : "https:\/\/goodwitchofsalem.com"
  },
  {
    "address" : "282 Derby St, Salem",
    "categories" : [
      "shop"
    ],
    "coordinate" : {
      "latitude" : 42.5205832,
      "longitude" : -70.8912826
    },
    "name" : "The Lost Library",
    "phoneNumber" : "+1 (978) 740-2992",
    "website" : "https:\/\/lostlibrarysalem.com"
  },
  {
    "address" : "127 Essex St, Salem",
    "categories" : [
      "souvenierShop"
    ],
    "coordinate" : {
      "latitude" : 42.522285195505646,
      "longitude" : -70.89093085287828
    },
    "name" : "Wynott Wands",
    "phoneNumber" : "+1 (978) 741-1170",
    "website" : "https:\/\/salemmagicshop.com"
  },
  {
    "address" : "125 Essex St, Salem",
    "categories" : [
      "paganStore"
    ],
    "coordinate" : {
      "latitude" : 42.522319455750164,
      "longitude" : -70.890794953052
    },
    "name" : "Crow Haven Corner",
    "phoneNumber" : "+1 (978) 745-8763",
    "website" : "http:\/\/www.crowhavencorner.com"
  },
  {
    "address" : "109 Essex St, Salem",
    "categories" : [
      "shop"
    ],
    "coordinate" : {
      "latitude" : 42.5224653,
      "longitude" : -70.8901318
    },
    "name" : "Moody's Home & Gifts",
    "phoneNumber" : "+1 (978) 414-5390",
    "website" : "http:\/\/www.moodysgifts.com"
  },
  {
    "address" : "10 Derby Square, Salem",
    "categories" : [
      "shop"
    ],
    "coordinate" : {
      "latitude" : 42.521091,
      "longitude" : -70.894899
    },
    "name" : "A Beautiful Corset",
    "phoneNumber" : "+1 (978) 740-2922",
    "website" : "http:\/\/www.abeautifulcorset.com"
  },
  {
    "address" : "3 Hawthorne Blvd, Salem",
    "categories" : [
      "shop"
    ],
    "coordinate" : {
      "latitude" : 42.5222078,
      "longitude" : -70.8901041
    },
    "name" : "Artemisia Botanicals",
    "phoneNumber" : "+1 (978) 745-0065",
    "website" : "http:\/\/www.artemisiabotanicals.com"
  },
  {
    "address" : "214 Derby St, Salem",
    "categories" : [
      "shop"
    ],
    "coordinate" : {
      "latitude" : 42.5208462,
      "longitude" : -70.8889784
    },
    "name" : "Pyramid Books",
    "phoneNumber" : "+1 (978) 745-7171",
    "website" : "https:\/\/www.facebook.com\/Pyramid-Books-290521906538\/"
  },
  {
    "address" : "98 Wharf St, Salem",
    "categories" : [
      "psychicReading",
      "paganStore"
    ],
    "coordinate" : {
      "latitude" : 42.520483,
      "longitude" : -70.8881024
    },
    "name" : "Enchanted Shop",
    "phoneNumber" : "+1 (978) 745-2856",
    "website" : "http:\/\/www.enchantedshops.com"
  },
  {
    "address" : "40 Front St, Salem",
    "categories" : [
      "souvenierShop"
    ],
    "coordinate" : {
      "latitude" : 42.5205856,
      "longitude" : -70.8950678
    },
    "name" : "Roost & Company",
    "phoneNumber" : "+1 (978) 744-4663",
    "website" : "http:\/\/www.roostandcompany.com"
  },
  {
    "address" : "82 Wharf St, Salem",
    "categories" : [
      "shop"
    ],
    "coordinate" : {
      "latitude" : 42.5196454,
      "longitude" : -70.8881088
    },
    "name" : "Partridge In A Bear Tree",
    "phoneNumber" : "+1 (978) 744-0548",
    "website" : "https:\/\/www.salem.org\/venue\/partridge-in-a-bear-tree"
  },
  {
    "address" : "131 Essex St, Salem",
    "categories" : [
      "shop"
    ],
    "coordinate" : {
      "latitude" : 42.5221433,
      "longitude" : -70.8914259
    },
    "name" : "New England Magic",
    "phoneNumber" : "+1 (978) 825-9913",
    "website" : "http:\/\/newenglandmagic.net"
  },
  {
    "address" : "102 Wharf St, Salem",
    "categories" : [
      "souvenierShop"
    ],
    "coordinate" : {
      "latitude" : 42.5205291,
      "longitude" : -70.8881344
    },
    "name" : "The Marble Faun Books & Gifts",
    "phoneNumber" : "+1 (978) 594-0110",
    "website" : "http:\/\/themarblefaunbooksandgifts.com\/"
  },
  {
    "address" : "100 Derby St, Salem",
    "categories" : [
      "shop"
    ],
    "coordinate" : {
      "latitude" : 42.522962,
      "longitude" : -70.8836912
    },
    "name" : "Crotchet Box Country Store",
    "phoneNumber" : "+1 (978) 744-2114"
  },
  {
    "address" : "53 Cabot St, Beverly",
    "categories" : [
      "shop"
    ],
    "coordinate" : {
      "latitude" : 42.543054,
      "longitude" : -70.8825606
    },
    "name" : "Ward's Florist & Greenhouse",
    "phoneNumber" : "+1 (978) 922-0032",
    "website" : "https:\/\/www.wardsflorist.com"
  },
  {
    "address" : "12 Front St, Salem",
    "categories" : [
      "shop"
    ],
    "coordinate" : {
      "latitude" : 42.52065678121807,
      "longitude" : -70.89409112944749
    },
    "name" : "Biss",
    "phoneNumber" : "+1 (508) 844-1049",
    "website" : "https:\/\/www.facebook.com\/shopatbiss\/"
  },
  {
    "address" : "Salem",
    "categories" : [
      "transport"
    ],
    "coordinate" : {
      "latitude" : 42.5251302,
      "longitude" : -70.8956798
    },
    "name" : "Salem Station"
  },
  {
    "address" : "Beverly",
    "categories" : [
      "transport"
    ],
    "coordinate" : {
      "latitude" : 42.5475418,
      "longitude" : -70.8853803
    },
    "name" : "Beverly Depot Station"
  },
  {
    "address" : "184 Essex St, Salem",
    "categories" : [
        "paganStore"
    ],
    "coordinate" : {
      "latitude" : 42.5218541,
      "longitude" : -70.8935437
    },
    "name" : "Omen - Psychic Parlor and Witchcraft",
    "phoneNumber" : "+1 (978) 666-0763",
    "website" : "http:\/\/www.omensalem.com"
  },
  {
    "address" : "6 Hawthorne Blvd, Salem",
    "categories" : [
      "psychicReading"
    ],
    "coordinate" : {
      "latitude" : 42.522084,
      "longitude" : -70.8905712
    },
    "name" : "Fatima's Psychic Studio",
    "phoneNumber" : "+1 (978) 740-9820"
  },
  {
    "address" : "184 Essex St, Salem",
    "categories" : [
      "paganStore"
    ],
    "coordinate" : {
      "latitude" : 42.5218541,
      "longitude" : -70.8935437
    },
    "name" : "Hex Old World Witchery",
    "phoneNumber" : "+1 (978) 666-0765",
    "website" : "https:\/\/www.hexwitch.com"
  },
  {
    "address" : "65 Wharf St, Salem",
    "categories" : [
      "paganStore"
    ],
    "coordinate" : {
      "latitude" : 42.5199349,
      "longitude" : -70.8884403
    },
    "name" : "The Cauldron Black",
    "phoneNumber" : "+1 (978) 744-2492",
    "website" : "http:\/\/www.thecauldronblack.com"
  },
  {
    "address" : "19 Front St, Salem",
    "categories" : [
      "attraction"
    ],
    "coordinate" : {
      "latitude" : 42.5203755,
      "longitude" : -70.8943733
    },
    "name" : "Salem Ritual For Hire"
  },
  {
    "address" : "272 Essex St, Salem",
    "categories" : [
      "paganStore"
    ],
    "coordinate" : {
      "latitude" : 42.5215331,
      "longitude" : -70.8973703
    },
    "name" : "Hermetic Arts Learning Center",
    "phoneNumber" : "+1 (617) 987-5224",
    "website" : "https:\/\/www.facebook.com\/HermeticArtsLearningCenter\/"
  },
  {
    "address" : "248 Washington St, Ste 9, Salem",
    "categories" : [
      "psychicReading"
    ],
    "coordinate" : {
      "latitude" : 42.5178356,
      "longitude" : -70.8947804
    },
    "name" : "Cat Turner Medium and Psychic",
    "phoneNumber" : "+1 (978) 766-4098"
  },
  {
    "address" : "231 Essex St, Salem",
    "categories" : [
      "psychicReading",
      "paganStore"
    ],
    "coordinate" : {
      "latitude" : 42.5213597383973,
      "longitude" : -70.89534994723745
    },
    "name" : "Magika",
    "phoneNumber" : "+1 (978) 741-9297",
    "website" : "http:\/\/www.magika.org"
  },
  {
    "address" : "8 Front St, #216, Salem",
    "categories" : [
      "paganStore",
      "clothingStore"
    ],
    "coordinate" : {
      "latitude" : 42.52067673844643,
      "longitude" : -70.89396396745639
    },
    "name" : "Modern Magic",
    "website" : "https:\/\/www.modernmagicsalem.com\/"
  },
  {
    "address" : "5 Washington St, Beverly",
    "categories" : [
      "psychicReading"
    ],
    "coordinate" : {
      "latitude" : 42.5465158,
      "longitude" : -70.8793869
    },
    "name" : "Zodiac Tea Room",
    "phoneNumber" : "+1 (978) 969-0718",
    "website" : "http:\/\/zodiactearoom.com"
  },
  {
    "address" : "254 Essex St, Ste 204, Salem",
    "categories" : [
      "psychicReading"
    ],
    "coordinate" : {
      "latitude" : 42.5216105,
      "longitude" : -70.8965092
    },
    "name" : "Celestial Navigation Astrology",
    "website" : "https:\/\/celestialnavigationastrology.com\/"
  },
  {
    "address" : "1 Derby Square, Salem",
    "categories" : [
      "psychicReading",
      "souvenierShop"
    ],
    "coordinate" : {
      "latitude" : 42.5213694497936,
      "longitude" : -70.89452870370339
    },
    "name" : "Sabrina the Good Witch",
    "phoneNumber" : "+1 (207) 337-0989"
  },
  {
    "address" : "81 Wharf St, Salem",
    "categories" : [
      "psychicReading"
    ],
    "coordinate" : {
      "latitude" : 42.5203284,
      "longitude" : -70.8883928
    },
    "name" : "Salem Psychics",
    "phoneNumber" : "+1 (978) 401-8019",
    "website" : "http:\/\/www.salempsychics.com"
  },
  {
    "address" : "190 Essex St, Salem",
    "categories" : [
      "paganStore"
    ],
    "coordinate" : {
      "latitude" : 42.521804,
      "longitude" : -70.8938047
    },
    "name" : "Practical Magic",
    "phoneNumber" : "+1 (978) 745-8883"
  },
  {
    "address" : "3 Dodge St, Salem",
    "categories" : [
      "cannabisDispensary"
    ],
    "coordinate" : {
      "latitude" : 42.5188611,
      "longitude" : -70.8938816
    },
    "name" : "Seagrass",
    "phoneNumber" : "+1 (978) 498-4183",
    "website" : "http:\/\/www.seagrasssalem.com"
  },
  {
    "address" : "50 Grove St, Salem",
    "categories" : [
      "cannabisDispensary"
    ],
    "coordinate" : {
      "latitude" : 42.52232933249809,
      "longitude" : -70.91085663249248
    },
    "name" : "Alternative Therapies Group",
    "phoneNumber" : "+1 (978) 834-6800",
    "website" : "http:\/\/atgcannabis.com"
  },
  {
    "address" : "350 Rantoul St, Beverly",
    "categories" : [
      "cannabisDispensary"
    ],
    "coordinate" : {
      "latitude" : 42.5523413,
      "longitude" : -70.8828065
    },
    "name" : "Reverie 73",
    "website" : "https:\/\/reverie73.com"
  },
  {
    "address" : "2 Bridge St, Salem",
    "categories" : [
      "cannabisDispensary"
    ],
    "coordinate" : {
      "latitude" : 42.5365205,
      "longitude" : -70.8872008
    },
    "name" : "Starbird",
    "phoneNumber" : "+1 (978) 662-0191",
    "website" : "http:\/\/starbirdsalem.com"
  },
  {
    "address" : "15 Hawthorne Blvd, Salem",
    "categories" : [
      "placeOfWorship"
    ],
    "coordinate" : {
      "latitude" : 42.5213479,
      "longitude" : -70.8896899
    },
    "name" : "Immaculate Conception Church - Mary Queen of the Apostles Parish",
    "phoneNumber" : "+1 (978) 745-9060",
    "website" : "https:\/\/www.mqoa.org"
  },
  {
    "address" : "24 St Peter St, Salem",
    "categories" : [
      "placeOfWorship"
    ],
    "coordinate" : {
      "latitude" : 42.5230347,
      "longitude" : -70.8930737
    },
    "name" : "St Peter´s-San Pedro Episcopal Church",
    "phoneNumber" : "+1 (978) 745-2291",
    "website" : "https:\/\/www.stpeters-sanpedro.org\/"
  },
  {
    "address" : "316 Essex St, Salem",
    "categories" : [
      "placeOfWorship"
    ],
    "coordinate" : {
      "latitude" : 42.5214944,
      "longitude" : -70.8994006
    },
    "name" : "First Church in Salem, Unitarian Universalist",
    "phoneNumber" : "+1 (978) 744-1551",
    "website" : "http:\/\/www.firstchurchinsalem.org"
  },
  {
    "address" : "50 Washington St, Salem",
    "categories" : [
      "placeOfWorship"
    ],
    "coordinate" : {
      "latitude" : 42.5227884,
      "longitude" : -70.8965086
    },
    "name" : "Tabernacle Congregational Church",
    "phoneNumber" : "+1 (978) 744-3164",
    "website" : "http:\/\/www.tabernaclechurch.org"
  },
  {
    "address" : "28 St Peter St, Salem",
    "categories" : [
      "placeOfWorship"
    ],
    "coordinate" : {
      "latitude" : 42.52337,
      "longitude" : -70.893018
    },
    "name" : "Saint John The Baptist Church",
    "phoneNumber" : "+1 (978) 744-1278",
    "website" : "http:\/\/www.salemcatholiccommunity.org"
  },
  {
    "address" : "17 Chestnut St, Peabody",
    "categories" : [
      "placeOfWorship"
    ],
    "coordinate" : {
      "latitude" : 42.525942,
      "longitude" : -70.9296763
    },
    "name" : "St John the Baptist Parish",
    "phoneNumber" : "+1 (978) 532-1586",
    "website" : "http:\/\/www.stjohnspeabody.com\/"
  },
  {
    "address" : "64 Forrester St, Salem",
    "categories" : [
      "placeOfWorship"
    ],
    "coordinate" : {
      "latitude" : 42.5258297,
      "longitude" : -70.884776
    },
    "name" : "St Nicholas Orthodox Church",
    "phoneNumber" : "+1 (978) 744-5869",
    "website" : "http:\/\/oca.org\/DIRlisting.asp?SID=9&KEY=OCA-NE-SALSNC"
  },
  {
    "address" : "8 North St, Salem",
    "categories" : [
      "placeOfWorship"
    ],
    "coordinate" : {
      "latitude" : 42.5221644,
      "longitude" : -70.8983597
    },
    "name" : "Wesley United Methodist Church",
    "phoneNumber" : "+1 (978) 744-3113",
    "website" : "http:\/\/www.salemwesley.org"
  },
  {
    "address" : "5 Paleologos St, Peabody",
    "categories" : [
      "placeOfWorship"
    ],
    "coordinate" : {
      "latitude" : 42.5266468,
      "longitude" : -70.9213192
    },
    "name" : "St Vasilios (Basil) the Great Greek Orthodox Church",
    "phoneNumber" : "+1 (978) 531-0777",
    "website" : "http:\/\/www.stvasilios.org"
  },
  {
    "address" : "1 Margin St, Peabody",
    "categories" : [
      "placeOfWorship"
    ],
    "coordinate" : {
      "latitude" : 42.532872,
      "longitude" : -70.9130305
    },
    "name" : "St. Thomas the Apostle",
    "phoneNumber" : "+1 (978) 531-0224",
    "website" : "https:\/\/www.stthomaspeabody.org"
  },
  {
    "address" : "253 Cabot St, Beverly",
    "categories" : [
      "placeOfWorship"
    ],
    "coordinate" : {
      "latitude" : 42.5498788,
      "longitude" : -70.8775051
    },
    "name" : "St Mary's Church",
    "phoneNumber" : "+1 (978) 922-0113",
    "website" : "http:\/\/www.beverlycatholic.com"
  },
  {
    "address" : "24 Washington St, Peabody",
    "categories" : [
      "placeOfWorship"
    ],
    "coordinate" : {
      "latitude" : 42.5227556,
      "longitude" : -70.923985
    },
    "name" : "Center Church",
    "phoneNumber" : "+1 (978) 717-5751",
    "website" : "https:\/\/www.centerchurchpeabody.com"
  },
  {
    "address" : "19 Washington Square N, Salem",
    "categories" : [
      "hotel"
    ],
    "coordinate" : {
      "latitude" : 42.5234663,
      "longitude" : -70.8910678
    },
    "name" : "The Stepping Stone Inn",
    "phoneNumber" : "+1 (978) 741-8900",
    "website" : "http:\/\/thesteppingstoneinn.com\/"
  },
  {
    "address" : "1 Daniels St, Salem",
    "categories" : [
      "hotel"
    ],
    "coordinate" : {
      "latitude" : 42.523133,
      "longitude" : -70.886317
    },
    "name" : "Daniels House Inn",
    "phoneNumber" : "+1 (978) 594-8757",
    "website" : "https:\/\/www.danielshousesalem.com"
  },
  {
    "address" : "30 Northey St, Salem",
    "categories" : [
      "hotel"
    ],
    "coordinate" : {
      "latitude" : 42.527756,
      "longitude" : -70.892241
    },
    "name" : "Northey Street House",
    "phoneNumber" : "+1 (978) 397-1582",
    "website" : "http:\/\/www.northeystreethouse.com"
  },
  {
    "address" : "Salem",
    "categories" : [
      "attraction"
    ],
    "coordinate" : {
      "latitude" : 42.5165796,
      "longitude" : -70.8835477
    },
    "name" : "Derby Wharf Light Station",
    "phoneNumber" : "+1 (978) 740-1650",
    "website" : "https:\/\/www.nps.gov\/places\/derby-light.htm"
  },
  {
    "address" : "59 Wharf St, Salem",
    "categories" : [
      "attraction"
    ],
    "coordinate" : {
      "latitude" : 42.5203391,
      "longitude" : -70.8884312
    },
    "name" : "Chambers of Terror",
    "phoneNumber" : "+1 (978) 741-0002",
    "website" : "http:\/\/www.chambersofterror.net"
  },
  {
    "address" : "2 Essex St, Salem",
    "categories" : [
      "foodRestaurant"
    ],
    "coordinate" : {
      "latitude" : 42.5219647,
      "longitude" : -70.8931553
    },
    "name" : "Essex's New York Pizza & Deli",
    "phoneNumber" : "+1 (978) 741-1383",
    "website" : "http:\/\/www.essexsnypizza.com"
  },
  {
    "address" : "176 Essex St, Salem",
    "categories" : [
      "market"
    ],
    "coordinate" : {
      "latitude" : 42.521895,
      "longitude" : -70.8932261
    },
    "name" : "Polonus European Deli & Ice Cream",
    "phoneNumber" : "+1 (978) 740-3203",
    "website" : "http:\/\/www.polonusdeli.com"
  },
  {
    "address" : "48 Congress St, Salem",
    "categories" : [
      "foodRestaurant"
    ],
    "coordinate" : {
      "latitude" : 42.517931,
      "longitude" : -70.8895212
    },
    "name" : "Lil’ Devil’s",
    "phoneNumber" : "+1 (978) 745-5900",
    "website" : "http:\/\/www.lildevilsdeli.com"
  },
  {
    "address" : "203 Canal St, Salem",
    "categories" : [
      "foodRestaurant"
    ],
    "coordinate" : {
      "latitude" : 42.5067116,
      "longitude" : -70.8956315
    },
    "name" : "Bagel World",
    "phoneNumber" : "+1 (978) 741-5225",
    "website" : "https:\/\/bagelworld.net\/canal"
  },
  {
    "address" : "11 Main St, Peabody",
    "categories" : [
      "foodRestaurant",
      "customerRestroom"
    ],
    "coordinate" : {
      "latitude" : 42.5253935,
      "longitude" : -70.9265193
    },
    "name" : "Brothers Restaurant & Deli",
    "phoneNumber" : "+1 (978) 717-5578",
    "website" : "http:\/\/brotherspeabody.com"
  },
  {
    "address" : "62 Walnut St, Peabody",
    "categories" : [
      "market"
    ],
    "coordinate" : {
      "latitude" : 42.5264398,
      "longitude" : -70.9220173
    },
    "name" : "New England Meat Market",
    "phoneNumber" : "+1 (978) 531-0846",
    "website" : "https:\/\/www.newenglandmeatmarket.com\/"
  },
  {
    "address" : "28 Norman St, Salem",
    "categories" : [
      "tattooParlor"
    ],
    "coordinate" : {
      "latitude" : 42.5202949,
      "longitude" : -70.897215
    },
    "name" : "Helheim Gallery",
    "phoneNumber" : "+1 (978) 744-2367"
  },
  {
    "address" : "265 Essex St, Salem",
    "categories" : [
      "pointOfInterest"
    ],
    "coordinate" : {
      "latitude" : 42.51986574283005,
      "longitude" : -70.89453479898503
    },
    "name" : "Artist's Row",
    "phoneNumber" : "+1 (978) 619-5685",
    "website" : "http:\/\/artistsrowsalem.com"
  },
  {
    "address" : "64 Bridge St, Salem",
    "categories" : [
      "attraction"
    ],
    "coordinate" : {
      "latitude" : 42.5313173,
      "longitude" : -70.8891237
    },
    "name" : "Salem Art Gallery",
    "phoneNumber" : "+1 (857) 523-2200",
    "website" : "https:\/\/salemartgallery.com"
  },
  {
    "address" : "172 Lafayette St, Salem",
    "categories" : [
      "tattooParlor"
    ],
    "coordinate" : {
      "latitude" : 42.5153604,
      "longitude" : -70.8929912
    },
    "name" : "9th Realm Gallery and Tattoo",
    "phoneNumber" : "+1 (978) 594-1488",
    "website" : "https:\/\/www.9threalmgallery.com"
  },
  {
    "address" : "186 Cabot St, Beverly",
    "categories" : [
      "attraction"
    ],
    "coordinate" : {
      "latitude" : 42.5474745,
      "longitude" : -70.8793875
    },
    "name" : "Clay Dreaming Pottery Studio",
    "phoneNumber" : "+1 (978) 712-2292",
    "website" : "http:\/\/www.claydreaming.com"
  },
  {
    "address" : "264 Washington St, Salem",
    "categories" : [
      "souvenierShop"
    ],
    "coordinate" : {
      "latitude" : 42.5175842,
      "longitude" : -70.8940857
    },
    "name" : "The Art Corner",
    "phoneNumber" : "+1 (978) 745-9524"
  },
  {
    "address" : "135 Essex St, Salem",
    "categories" : [
      "souvenierShop"
    ],
    "coordinate" : {
      "latitude" : 42.521939,
      "longitude" : -70.891792
    },
    "name" : "Brick Box",
    "phoneNumber" : "+1 (978) 745-5000",
    "website" : "http:\/\/marineartsgallery.com"
  },
  {
    "address" : "104 Wharf St, Salem",
    "categories" : [
      "souvenierShop"
    ],
    "coordinate" : {
      "latitude" : 42.5207043,
      "longitude" : -70.8882142
    },
    "name" : "Joe's Fresh Fish Prints",
    "phoneNumber" : "+1 (978) 944-1709",
    "website" : "https:\/\/fishedimpressions.com"
  },
  {
    "address" : "10 Colonial Rd, Unit 14, Salem",
    "categories" : [
      "shop"
    ],
    "coordinate" : {
      "latitude" : 42.5094639,
      "longitude" : -70.9005788
    },
    "name" : "The Art Corner",
    "phoneNumber" : "+1 (978) 745-9524"
  },
  {
    "address" : "29 Bridge St, Salem",
    "categories" : [
      "yogaStudio"
    ],
    "coordinate" : {
      "latitude" : 42.5341739,
      "longitude" : -70.8871725
    },
    "name" : "Yoga Sakti",
    "phoneNumber" : "+1 (978) 744-9642",
    "website" : "http:\/\/yogasakti.com"
  },
  {
    "address" : "20 Central St, Ste 108, Salem",
    "categories" : [
      "yogaStudio"
    ],
    "coordinate" : {
      "latitude" : 42.520919136173816,
      "longitude" : -70.8938075312693
    },
    "name" : "Dark Star Yoga & Wellness",
    "phoneNumber" : "+1 (781) 864-3317",
    "website" : "http:\/\/darkstaryogasalem.com"
  },
  {
    "address" : "142 Canal St, Salem",
    "categories" : [
      "yogaStudio"
    ],
    "coordinate" : {
      "latitude" : 42.5084423,
      "longitude" : -70.8967392
    },
    "name" : "Dóchas House of Yoga",
    "website" : "https:\/\/www.dochashouseofyoga.com\/"
  },
  {
    "address" : "110 Cabot St, Beverly",
    "categories" : [
      "yogaStudio"
    ],
    "coordinate" : {
      "latitude" : 42.5460463,
      "longitude" : -70.8802517
    },
    "name" : "Earthly Bodies Yoga + Movement",
    "website" : "https:\/\/www.earthlybodiesyoga.com"
  },
  {
    "address" : "240 Rantoul St, Beverly",
    "categories" : [
      "yogaStudio"
    ],
    "coordinate" : {
      "latitude" : 42.5495828,
      "longitude" : -70.8837961
    },
    "name" : "Purple Sun + Moon Yoga",
    "phoneNumber" : "+1 (781) 423-8183"
  },
  {
    "address" : "6 Federal St, Beverly",
    "categories" : [
      "yogaStudio"
    ],
    "coordinate" : {
      "latitude" : 42.5487767,
      "longitude" : -70.8789665
    },
    "name" : "Atypical Yoga Studio",
    "phoneNumber" : "+1 (617) 281-8071",
    "website" : "https:\/\/www.atypicalyoga.com"
  },
  {
    "address" : "60 Washington St, Salem",
    "categories" : [
      "foodRestaurant"
    ],
    "coordinate" : {
      "latitude" : 42.522486,
      "longitude" : -70.8960529
    },
    "name" : "Au Gratin",
    "phoneNumber" : "+1 (978) 306-7140",
    "website" : "http:\/\/www.augratinsalem.com"
  },
  {
    "address" : "28 Norman St Rte 114, Salem",
    "categories" : [
        "italian"
    ],
    "coordinate" : {
      "latitude" : 42.5203311,
      "longitude" : -70.8972766
    },
    "name" : "Georgia's Pizza",
    "phoneNumber" : "+1 (978) 740-2800",
    "website" : "http:\/\/www.georgiaspizzasalem.com"
  },
  {
    "address" : "4 Canal St, Salem",
    "categories" : [
      "foodRestaurant"
    ],
    "coordinate" : {
      "latitude" : 42.5178226,
      "longitude" : -70.895499
    },
    "name" : "Domino's Pizza",
    "phoneNumber" : "+1 (978) 744-4040",
    "website" : "https:\/\/pizza.dominos.com\/massachusetts\/salem\/4-canal-st\/"
  },
  {
    "address" : "4 Boston St, Salem",
    "categories" : [
      "diner"
    ],
    "coordinate" : {
      "latitude" : 42.5180718,
      "longitude" : -70.9057818
    },
    "name" : "Deb's Diner",
    "phoneNumber" : "+1 (978) 745-2348",
    "website" : "https:\/\/www.facebook.com\/Debsdiners\/"
  },
  {
    "address" : "135 Canal St, Salem",
    "categories" : [
      "foodRestaurant"
    ],
    "coordinate" : {
      "latitude" : 42.5086787,
      "longitude" : -70.8959116
    },
    "name" : "Dina's Roast Beef",
    "phoneNumber" : "+1 (978) 744-1229",
    "website" : "http:\/\/dinasroastbeef.net"
  },
  {
    "address" : "89 Foster St, Peabody",
    "categories" : [
      "foodRestaurant"
    ],
    "coordinate" : {
      "latitude" : 42.5227166,
      "longitude" : -70.930599
    },
    "name" : "Brother's Roast Beef",
    "phoneNumber" : "+1 (978) 538-7333",
    "website" : "https:\/\/brothersroastbeefpeabody.com"
  },
  {
    "address" : "119-125 Canal St, Suite A-8, Salem",
    "categories" : [
      "foodRestaurant"
    ],
    "coordinate" : {
      "latitude" : 42.5100897,
      "longitude" : -70.895267
    },
    "name" : "Subway",
    "phoneNumber" : "+1 (978) 744-7827",
    "website" : "https:\/\/restaurants.subway.com\/united-states\/ma\/salem\/119-125-canal-st"
  },
  {
    "address" : "324 Cabot St, Beverly",
    "categories" : [
      "foodRestaurant"
    ],
    "coordinate" : {
      "latitude" : 42.5533962,
      "longitude" : -70.8788407
    },
    "name" : "Super Sub Shop",
    "phoneNumber" : "+1 (978) 927-4788",
    "website" : "http:\/\/www.supersubbev.com"
  },
  {
    "address" : "79 Bridge St, Beverly",
    "categories" : [
      "latinAmerican"
    ],
    "coordinate" : {
      "latitude" : 42.5508439,
      "longitude" : -70.8949753
    },
    "name" : "Tesoro Cucina",
    "phoneNumber" : "+1 (978) 529-2869",
    "website" : "https:\/\/tesorocucina.com"
  },
  {
    "address" : "208 Rantoul St, Beverly",
    "categories" : [
      "pub"
    ],
    "coordinate" : {
      "latitude" : 42.5485444,
      "longitude" : -70.8841424
    },
    "name" : "Greg's Tavern",
    "phoneNumber" : "+1 (978) 720-8911",
    "website" : "http:\/\/gregstavern.com"
  },
  {
    "address" : "280 Cabot St, Beverly",
    "categories" : [
      "foodRestaurant"
    ],
    "coordinate" : {
      "latitude" : 42.5511202,
      "longitude" : -70.8786446
    },
    "name" : "Wrapture",
    "phoneNumber" : "+1 (978) 524-7710",
    "website" : "http:\/\/www.wrapturebeverly.com"
  },
  {
    "address" : "44 Margin St, Peabody",
    "categories" : [
      "foodRestaurant"
    ],
    "coordinate" : {
      "latitude" : 42.5356525,
      "longitude" : -70.9171342
    },
    "name" : "Jamie's Roast Beef",
    "phoneNumber" : "+1 (978) 531-9942",
    "website" : "https:\/\/www.jamiesroastbeef.com"
  },
  {
    "address" : "2 Central St, Peabody",
    "categories" : [
      "foodRestaurant"
    ],
    "coordinate" : {
      "latitude" : 42.5273797,
      "longitude" : -70.9278081
    },
    "name" : "Bill & Bob's Roast Beef",
    "phoneNumber" : "+1 (978) 531-9605",
    "website" : "http:\/\/www.billandbobs.com"
  },
  {
    "address" : "26 Congress St, Salem",
    "categories" : [
      "foodRestaurant"
    ],
    "coordinate" : {
      "latitude" : 42.519808,
      "longitude" : -70.8899841
    },
    "name" : "Antique Table",
    "phoneNumber" : "+1 (978) 594-1538",
    "website" : "https:\/\/antiquetableasado.com\/"
  },
  {
    "address" : "11 Central St, Salem",
    "categories" : [
      "shop"
    ],
    "coordinate" : {
      "latitude" : 42.52124781143969,
      "longitude" : -70.89351961307447
    },
    "name" : "Diehl Marcus & Company",
    "phoneNumber" : "+1 (323) 605-1446",
    "website" : "https:\/\/diehlmarcus.com"
  },
  {
    "address" : "30 Church St, Salem",
    "categories" : [
      "shop"
    ],
    "coordinate" : {
      "latitude" : 42.522644126871995,
      "longitude" : -70.89505631165758
    },
    "name" : "Serpentine Books",
    "phoneNumber" : "+1 (978) 710-0735",
    "website" : "http:\/\/millno5.com"
  },
  {
    "address" : "234 Essex St, Salem",
    "categories" : [
      "shop"
    ],
    "coordinate" : {
      "latitude" : 42.52155056993924,
      "longitude" : -70.89585711099052
    },
    "name" : "The Black Cat Curiosity Shoppe",
    "website" : "https:\/\/www.blackcatsalem.com\/curious"
  },
  {
    "address" : "1 Hawthorne Blvd, Salem",
    "categories" : [
      "shop"
    ],
    "coordinate" : {
      "latitude" : 42.5223637,
      "longitude" : -70.8901153
    },
    "name" : "AAA Olde Naumkeag Antiques",
    "phoneNumber" : "+1 (978) 745-9280"
  },
  {
    "address" : "63 Wharf St, Salem",
    "categories" : [
      "shop"
    ],
    "coordinate" : {
      "latitude" : 42.519902,
      "longitude" : -70.888366
    },
    "name" : "Magika",
    "phoneNumber" : "+1 (978) 740-9297",
    "website" : "http:\/\/www.magika.org"
  },
  {
    "address" : "10 Jefferson Ave, Salem",
    "categories" : [
      "shop"
    ],
    "coordinate" : {
      "latitude" : 42.5154562,
      "longitude" : -70.8988996
    },
    "name" : "Circus Lane",
    "phoneNumber" : "+1 (978) 744-1100",
    "website" : "http:\/\/www.circuslane-salem.com"
  },
  {
    "address" : "98 Wharf St, Salem",
    "categories" : [
      "shop"
    ],
    "coordinate" : {
      "latitude" : 42.5204543,
      "longitude" : -70.8880175
    },
    "name" : "Antiques and Oriental Goods",
    "phoneNumber" : "+1 (978) 607-0144"
  },
  {
    "address" : "3 Hawthorne Blvd, Salem",
    "categories" : [
      "shop"
    ],
    "coordinate" : {
      "latitude" : 42.5222227,
      "longitude" : -70.8900391
    },
    "name" : "Europa",
    "phoneNumber" : "+1 (978) 744-4304",
    "website" : "https:\/\/europa.eu"
  },
  {
    "address" : "15 Walnut St, Peabody",
    "categories" : [
      "shop"
    ],
    "coordinate" : {
      "latitude" : 42.5267721,
      "longitude" : -70.9260447
    },
    "name" : "W.F. Healey",
    "phoneNumber" : "+1 (781) 820-3256",
    "website" : "http:\/\/www.wfhealey.com"
  },
  {
    "address" : "41 Washington St, Peabody",
    "categories" : [
      "shop"
    ],
    "coordinate" : {
      "latitude" : 42.52214,
      "longitude" : -70.9252861
    },
    "name" : "Ra Di Fillipo Antiques",
    "phoneNumber" : "+1 (978) 741-0889",
    "website" : "http:\/\/www.radifillipoantiques.com"
  },
  {
    "address" : "28 Norman St, Salem",
    "categories" : [
      "market"
    ],
    "coordinate" : {
      "latitude" : 42.520210837239155,
      "longitude" : -70.89726725397709
    },
    "name" : "E Market",
    "phoneNumber" : "+1 (978) 740-8800",
    "website" : "https:\/\/www.yelp.com\/biz\/e-market-salem"
  },
  {
    "address" : "109 Bridge St, Salem",
    "categories" : [
      "market"
    ],
    "coordinate" : {
      "latitude" : 42.5286338,
      "longitude" : -70.8899925
    },
    "name" : "New Market",
    "phoneNumber" : "+1 (978) 744-8364",
    "website" : "http:\/\/yardandfarm.com"
  },
  {
    "address" : "94 Bridge St, Salem",
    "categories" : [
      "gasStation"
    ],
    "coordinate" : {
      "latitude" : 42.5298202,
      "longitude" : -70.8898509
    },
    "name" : "Mobil",
    "phoneNumber" : "+1 (978) 741-7939",
    "website" : "https:\/\/www.exxon.com\/en\/find-station\/salem-ma-samsmarket-200304749"
  },
  {
    "address" : "164 Rantoul St, Beverly",
    "categories" : [
      "market"
    ],
    "coordinate" : {
      "latitude" : 42.5471398,
      "longitude" : -70.8846969
    },
    "name" : "Beverly Farmers' Market",
    "phoneNumber" : "+1 (978) 712-9054",
    "website" : "https:\/\/www.beverlyfarmersmarket.org"
  },
  {
    "address" : "311 Cabot St, Beverly",
    "categories" : [
      "liquorStore"
    ],
    "coordinate" : {
      "latitude" : 42.5530617,
      "longitude" : -70.8781792
    },
    "name" : "One Stop Market & Liquors",
    "phoneNumber" : "+1 (978) 524-4868",
    "website" : "http:\/\/www.onestopmarketbeverly.com"
  },
  {
    "address" : "150 Essex St, Salem",
    "categories" : [
      "museum"
    ],
    "coordinate" : {
      "latitude" : 42.521328179902106,
      "longitude" : -70.89216999949946
    },
    "name" : "Yin Yu Tang House",
    "phoneNumber" : "+1 (978) 745-9500",
    "website" : "http:\/\/www.pem.org\/visit\/yin_yu_tang.php"
  },
  {
    "address" : "234 Essex St, Salem",
    "categories" : [
      "museum"
    ],
    "coordinate" : {
      "latitude" : 42.5215773,
      "longitude" : -70.8960897
    },
    "name" : "Spirits of Salem",
    "phoneNumber" : "+1 (978) 412-2245",
    "website" : "https:\/\/www.spiritsofsalem.com"
  },
  {
    "address" : "207 Washington St, Salem",
    "categories" : [
      "attraction"
    ],
    "coordinate" : {
      "latitude" : 42.5192381,
      "longitude" : -70.8949242
    },
    "name" : "Stained Hourglass Escapes",
    "phoneNumber" : "+1 (978) 607-4273",
    "website" : "https:\/\/www.stainedhourglass.com"
  },
  {
    "address" : "330 Rantoul St, Beverly",
    "categories" : [
      "tattooParlor"
    ],
    "coordinate" : {
      "latitude" : 42.5518497,
      "longitude" : -70.8830386
    },
    "name" : "Garden City Tattoo",
    "phoneNumber" : "+1 (978) 969-1534",
    "website" : "http:\/\/www.gardencitytattoo.com"
  },
  {
    "address" : "99 Bridge St, Salem",
    "categories" : [
      "tattooParlor"
    ],
    "coordinate" : {
      "latitude" : 42.5292342,
      "longitude" : -70.8895652
    },
    "name" : "Beyond Ink Studio",
    "website" : "https:\/\/www.instagram.com\/beyond.ink.studio\/"
  },
  {
    "address" : "150 Main St, Peabody",
    "categories" : [
      "tattooParlor"
    ],
    "coordinate" : {
      "latitude" : 42.5239345,
      "longitude" : -70.9213666
    },
    "name" : "Timeless ink",
    "phoneNumber" : "+1 (978) 278-5711",
    "website" : "http:\/\/www.timelessink.net"
  },
  {
    "address" : "79 Lowell St, Peabody",
    "categories" : [
      "liquorStore"
    ],
    "coordinate" : {
      "latitude" : 42.5273581,
      "longitude" : -70.9309344
    },
    "name" : "Bunghole Liquors",
    "phoneNumber" : "+1 (978) 531-0089"
  },
  {
    "address" : "125 Canal St, Salem",
    "categories" : [
      "liquorStore"
    ],
    "coordinate" : {
      "latitude" : 42.510082590399996,
      "longitude" : -70.89518503859152
    },
    "name" : "Salem Liquors",
    "phoneNumber" : "+1 (978) 744-2335"
  },
  {
    "address" : "26 Bridge St, Salem",
    "categories" : [
      "liquorStore"
    ],
    "coordinate" : {
      "latitude" : 42.534386,
      "longitude" : -70.8877723
    },
    "name" : "Cosgrove's Liquors",
    "phoneNumber" : "+1 (978) 744-4000",
    "website" : "http:\/\/www.cosgroveliquors.com"
  },
  {
    "address" : "7 Main St, Unit 5509, Peabody",
    "categories" : [
      "shop"
    ],
    "coordinate" : {
      "latitude" : 42.5254402,
      "longitude" : -70.9266265
    },
    "name" : "Maine Smoke Shop",
    "phoneNumber" : "+1 (978) 532-8118",
    "website" : "https:\/\/findsmokeshop.com\/massachusetts\/peabody\/main-st-smoke-shop"
  },
  {
    "address" : "70A Loring Ave, Salem",
    "categories" : [
      "liquorStore"
    ],
    "coordinate" : {
      "latitude" : 42.5013084,
      "longitude" : -70.8957646
    },
    "name" : "Loring Liquors",
    "phoneNumber" : "+1 (978) 744-1630",
    "website" : "https:\/\/www.facebook.com\/loring.liquors\/"
  },
  {
    "address" : "18 Boston St, Salem",
    "categories" : [
      "liquorStore"
    ],
    "coordinate" : {
      "latitude" : 42.518359,
      "longitude" : -70.9067436
    },
    "name" : "Arge's Liquors",
    "phoneNumber" : "+1 (978) 744-1761"
  },
  {
    "address" : "174 Rantoul St, Beverly",
    "categories" : [
      "liquorStore"
    ],
    "coordinate" : {
      "latitude" : 42.5476453,
      "longitude" : -70.8843989
    },
    "name" : "One Stop Market & Liquor",
    "phoneNumber" : "+1 (978) 524-4868",
    "website" : "http:\/\/www.onestopmarketbeverly.com"
  },
  {
    "address" : "12 Foster St, Peabody",
    "categories" : [
      "liquorStore"
    ],
    "coordinate" : {
      "latitude" : 42.5252993,
      "longitude" : -70.9275235
    },
    "name" : "Bavaro Liquors",
    "phoneNumber" : "+1 (978) 531-0979",
    "website" : "https:\/\/www.instagram.com\/bavaroliquors\/?hl=en"
  },
  {
    "address" : "36 Walnut St, Peabody",
    "categories" : [
      "market"
    ],
    "coordinate" : {
      "latitude" : 42.5268797,
      "longitude" : -70.9247568
    },
    "name" : "Andy's Walnut Mart",
    "phoneNumber" : "+1 (978) 531-0334"
  },
  {
    "address" : "112 Rantoul St, Beverly",
    "categories" : [
      "liquorStore"
    ],
    "coordinate" : {
      "latitude" : 42.5456371,
      "longitude" : -70.8852031
    },
    "name" : "The Bottle Shop",
    "phoneNumber" : "+1 (617) 543-1000",
    "website" : "https:\/\/www.facebook.com\/thebottleshopbeverly\/"
  },
  {
    "address" : "7 Central St, Salem",
    "categories" : [
      "shop"
    ],
    "coordinate" : {
      "latitude" : 42.52142140209376,
      "longitude" : -70.89361744784473
    },
    "name" : "New England Dog Biscuit Company",
    "phoneNumber" : "+1 (978) 539-8187",
    "website" : "https:\/\/nedogbiscuit.com"
  },
  {
    "address" : "226 Essex St, Salem",
    "categories" : [
      "shop"
    ],
    "coordinate" : {
      "latitude" : 42.5216496,
      "longitude" : -70.8952938
    },
    "name" : "Penelope's Pet Boutique",
    "phoneNumber" : "+1 (978) 744-5884",
    "website" : "http:\/\/www.coonscardandgiftshop.com"
  },
  {
    "address" : "105 Canal St, Salem",
    "categories" : [
      "bar",
      "foodRestaurant",
      "customerRestroom"
    ],
    "coordinate" : {
      "latitude" : 42.5103946,
      "longitude" : -70.8959432
    },
    "name" : "Sidelines Sportsbar & Grill",
    "phoneNumber" : "+1 (978) 745-5870",
    "website" : "http:\/\/www.sidelinessportsbar.com"
  },
  {
    "address" : "278 Rantoul St, Beverly",
    "categories" : [
      "foodRestaurant",
      "bar",
      "customerRestroom"
    ],
    "coordinate" : {
      "latitude" : 42.5505399,
      "longitude" : -70.8835606
    },
    "name" : "Jacobs Corner Sports Bar & Grill",
    "phoneNumber" : "+1 (978) 969-1774",
    "website" : "http:\/\/www.jacobscornerpub.com"
  },
  {
    "address" : "63 Foster St, Peabody",
    "categories" : [
      "attraction"
    ],
    "coordinate" : {
      "latitude" : 42.5236936,
      "longitude" : -70.9293883
    },
    "name" : "Leo’s Metro Bowl",
    "phoneNumber" : "+1 (978) 531-0500",
    "website" : "http:\/\/www.leosmetrobowl.com"
  },
  {
    "address" : "1 Kosciusko St, Salem",
    "categories" : [
      "attraction"
    ],
    "coordinate" : {
      "latitude" : 42.5201855,
      "longitude" : -70.8864713
    },
    "name" : "Friendship Of Salem",
    "phoneNumber" : "+1 (978) 740-1650",
    "website" : "https:\/\/www.nps.gov\/sama\/"
  },
  {
    "categories" : [
      "portAPotty"
    ],
    "coordinate" : {
      "latitude" : 42.52320387195555,
      "longitude" : -70.88886437989554
    },
    "name" : "South Common Potties"
  }
]
